[
  {
    "departement": 1,
    "ville": "OZAN",
    "longitude": 4.91667,
    "latitude": 46.3833
  },
  {
    "departement": 1,
    "ville": "CORMORANCHE-SUR-SAONE",
    "longitude": 4.83333,
    "latitude": 46.2333
  },
  {
    "departement": 1,
    "ville": "PLAGNE",
    "longitude": 5.73333,
    "latitude": 46.1833
  },
  {
    "departement": 1,
    "ville": "TOSSIAT",
    "longitude": 5.31667,
    "latitude": 46.1333
  },
  {
    "departement": 1,
    "ville": "POUILLAT",
    "longitude": 5.43333,
    "latitude": 46.3333
  },
  {
    "departement": 1,
    "ville": "TORCIEU",
    "longitude": 5.4,
    "latitude": 45.9167
  },
  {
    "departement": 1,
    "ville": "REPLONGES",
    "longitude": 4.88333,
    "latitude": 46.3
  },
  {
    "departement": 1,
    "ville": "CORCELLES",
    "longitude": 5.58333,
    "latitude": 46.0333
  },
  {
    "departement": 1,
    "ville": "PERON",
    "longitude": 5.93333,
    "latitude": 46.2
  },
  {
    "departement": 1,
    "ville": "RELEVANT",
    "longitude": 4.95,
    "latitude": 46.0833
  },
  {
    "departement": 1,
    "ville": "CHAVEYRIAT",
    "longitude": 5.06667,
    "latitude": 46.1833
  },
  {
    "departement": 1,
    "ville": "VAUX-EN-BUGEY",
    "longitude": 5.35,
    "latitude": 45.9167
  },
  {
    "departement": 1,
    "ville": "MAILLAT",
    "longitude": 5.55,
    "latitude": 46.1333
  },
  {
    "departement": 1,
    "ville": "FARAMANS",
    "longitude": 5.11667,
    "latitude": 45.9
  },
  {
    "departement": 1,
    "ville": "BEON",
    "longitude": 5.75,
    "latitude": 45.8333
  },
  {
    "departement": 1,
    "ville": "SAINT-BERNARD",
    "longitude": 4.73723,
    "latitude": 45.945
  },
  {
    "departement": 1,
    "ville": "ROSSILLON",
    "longitude": 5.6,
    "latitude": 45.8333
  },
  {
    "departement": 1,
    "ville": "PONT-D'AIN",
    "longitude": 5.33333,
    "latitude": 46.05
  },
  {
    "departement": 1,
    "ville": "NANTUA",
    "longitude": 5.61667,
    "latitude": 46.15
  },
  {
    "departement": 1,
    "ville": "CHAVANNES-SUR-REYSSOUZE",
    "longitude": 5,
    "latitude": 46.4333
  },
  {
    "departement": 1,
    "ville": "NEUville-LES-DAMES",
    "longitude": 5,
    "latitude": 46.1667
  },
  {
    "departement": 1,
    "ville": "FLAXIEU",
    "longitude": 5.73333,
    "latitude": 45.8167
  },
  {
    "departement": 1,
    "ville": "HOTONNES",
    "longitude": 5.68333,
    "latitude": 46
  },
  {
    "departement": 1,
    "ville": "SAINT-SORLIN-EN-BUGEY",
    "longitude": 5.36667,
    "latitude": 45.8833
  },
  {
    "departement": 1,
    "ville": "SONGIEU",
    "longitude": 5.7,
    "latitude": 45.9667
  },
  {
    "departement": 1,
    "ville": "VIRIEU-LE-PETIT",
    "longitude": 5.71667,
    "latitude": 45.9
  },
  {
    "departement": 1,
    "ville": "SAINT-DENIS-EN-BUGEY",
    "longitude": 5.33333,
    "latitude": 45.95
  },
  {
    "departement": 1,
    "ville": "CHARNOZ-SUR-AIN",
    "longitude": 5.21667,
    "latitude": 45.8667
  },
  {
    "departement": 1,
    "ville": "CHAZEY-SUR-AIN",
    "longitude": 5.25,
    "latitude": 45.9
  },
  {
    "departement": 1,
    "ville": "MARCHAMP",
    "longitude": 5.55,
    "latitude": 45.7833
  },
  {
    "departement": 1,
    "ville": "CULOZ",
    "longitude": 5.78333,
    "latitude": 45.85
  },
  {
    "departement": 1,
    "ville": "MANTENAY-MONTLIN",
    "longitude": 5.08333,
    "latitude": 46.4167
  },
  {
    "departement": 1,
    "ville": "MARBOZ",
    "longitude": 5.25,
    "latitude": 46.3333
  },
  {
    "departement": 1,
    "ville": "FOISSIAT",
    "longitude": 5.18333,
    "latitude": 46.3667
  },
  {
    "departement": 1,
    "ville": "TREFFORT-CUISIAT",
    "longitude": 5.36834,
    "latitude": 46.2714
  },
  {
    "departement": 1,
    "ville": "IZIEU",
    "longitude": 5.63333,
    "latitude": 45.65
  },
  {
    "departement": 1,
    "ville": "SAINT-ETIENNE-DU-BOIS",
    "longitude": 5.28333,
    "latitude": 46.2833
  },
  {
    "departement": 1,
    "ville": "HAUTEville-LOMPNES",
    "longitude": 5.6,
    "latitude": 45.9667
  },
  {
    "departement": 1,
    "ville": "SAINT-TRIVIER-SUR-MOIGNANS",
    "longitude": 4.9,
    "latitude": 46.0667
  },
  {
    "departement": 1,
    "ville": "PEYRIAT",
    "longitude": 5.51667,
    "latitude": 46.15
  },
  {
    "departement": 1,
    "ville": "EVOSGES",
    "longitude": 5.5,
    "latitude": 45.9583
  },
  {
    "departement": 1,
    "ville": "PONCIN",
    "longitude": 5.4,
    "latitude": 46.0833
  },
  {
    "departement": 1,
    "ville": "CRANS",
    "longitude": 5.21667,
    "latitude": 45.9667
  },
  {
    "departement": 1,
    "ville": "MONTREAL-LA-CLUSE",
    "longitude": 5.57084,
    "latitude": 46.1867
  },
  {
    "departement": 1,
    "ville": "CLEYZIEU",
    "longitude": 5.43333,
    "latitude": 45.9
  },
  {
    "departement": 1,
    "ville": "LOMPNIEU",
    "longitude": 5.65,
    "latitude": 45.9667
  },
  {
    "departement": 1,
    "ville": "villeREVERSURE",
    "longitude": 5.38333,
    "latitude": 46.1833
  },
  {
    "departement": 1,
    "ville": "SAINT-MARTIN-DU-MONT",
    "longitude": 5.33333,
    "latitude": 46.1
  },
  {
    "departement": 1,
    "ville": "SAINT-GENIS-POUILLY",
    "longitude": 6.01667,
    "latitude": 46.25
  },
  {
    "departement": 1,
    "ville": "BOLOZON",
    "longitude": 5.48333,
    "latitude": 46.2
  },
  {
    "departement": 1,
    "ville": "CONFRANCON",
    "longitude": 5.06667,
    "latitude": 46.2667
  },
  {
    "departement": 1,
    "ville": "LOCHIEU",
    "longitude": 5.71667,
    "latitude": 45.9333
  },
  {
    "departement": 1,
    "ville": "CHANOZ-CHATENAY",
    "longitude": 5.03333,
    "latitude": 46.1833
  },
  {
    "departement": 1,
    "ville": "villeBOIS",
    "longitude": 5.43333,
    "latitude": 45.85
  },
  {
    "departement": 1,
    "ville": "CEIGNES",
    "longitude": 5.5,
    "latitude": 46.1167
  },
  {
    "departement": 1,
    "ville": "SAINT-DIDIER-SUR-CHALARONNE",
    "longitude": 4.81667,
    "latitude": 46.1667
  },
  {
    "departement": 1,
    "ville": "REVONNAS",
    "longitude": 5.33333,
    "latitude": 46.1667
  },
  {
    "departement": 1,
    "ville": "BOURG-SAINT-CHRISTOPHE",
    "longitude": 5.16667,
    "latitude": 45.8833
  },
  {
    "departement": 1,
    "ville": "CONDEISSIAT",
    "longitude": 5.08333,
    "latitude": 46.1667
  },
  {
    "departement": 1,
    "ville": "PIRAJOUX",
    "longitude": 5.3,
    "latitude": 46.3833
  },
  {
    "departement": 1,
    "ville": "CHALAMONT",
    "longitude": 5.16667,
    "latitude": 46
  },
  {
    "departement": 1,
    "ville": "LE PLANTAY",
    "longitude": 5.08333,
    "latitude": 46.0167
  },
  {
    "departement": 1,
    "ville": "VERSAILLEUX",
    "longitude": 5.1,
    "latitude": 45.9833
  },
  {
    "departement": 1,
    "ville": "MONTAGNAT",
    "longitude": 5.28333,
    "latitude": 46.1667
  },
  {
    "departement": 1,
    "ville": "VIEU",
    "longitude": 5.68333,
    "latitude": 45.9
  },
  {
    "departement": 1,
    "ville": "SAINT-ANDRE-DE-CORCY",
    "longitude": 4.95,
    "latitude": 45.9167
  },
  {
    "departement": 1,
    "ville": "BRESSOLLES",
    "longitude": 5.1,
    "latitude": 45.8667
  },
  {
    "departement": 1,
    "ville": "PERONNAS",
    "longitude": 5.2,
    "latitude": 46.1833
  },
  {
    "departement": 1,
    "ville": "COLOMIEU",
    "longitude": 5.61667,
    "latitude": 45.7333
  },
  {
    "departement": 1,
    "ville": "MONTHIEUX",
    "longitude": 4.93333,
    "latitude": 45.95
  },
  {
    "departement": 1,
    "ville": "SAINT-JEAN-SUR-REYSSOUZE",
    "longitude": 5.06667,
    "latitude": 46.4
  },
  {
    "departement": 1,
    "ville": "GARNERANS",
    "longitude": 4.83333,
    "latitude": 46.2
  },
  {
    "departement": 1,
    "ville": "MONTREVEL-EN-BRESSE",
    "longitude": 5.13333,
    "latitude": 46.3333
  },
  {
    "departement": 1,
    "ville": "CONAND",
    "longitude": 5.46667,
    "latitude": 45.8833
  },
  {
    "departement": 1,
    "ville": "CHALLES-LA-MONTAGNE",
    "longitude": 5.46667,
    "latitude": 46.1333
  },
  {
    "departement": 1,
    "ville": "MOGNENEINS",
    "longitude": 4.81667,
    "latitude": 46.1333
  },
  {
    "departement": 1,
    "ville": "THOISSEY",
    "longitude": 4.8,
    "latitude": 46.1667
  },
  {
    "departement": 1,
    "ville": "CHALEINS",
    "longitude": 4.8,
    "latitude": 46.0333
  },
  {
    "departement": 1,
    "ville": "NEUville-SUR-AIN",
    "longitude": 5.36667,
    "latitude": 46.0833
  },
  {
    "departement": 1,
    "ville": "THIL",
    "longitude": 5.01667,
    "latitude": 45.8167
  },
  {
    "departement": 1,
    "ville": "JUJURIEUX",
    "longitude": 5.41667,
    "latitude": 46.0333
  },
  {
    "departement": 1,
    "ville": "ONCIEU",
    "longitude": 5.46667,
    "latitude": 45.95
  },
  {
    "departement": 1,
    "ville": "LURCY",
    "longitude": 4.76667,
    "latitude": 46.0667
  },
  {
    "departement": 1,
    "ville": "BALAN",
    "longitude": 5.1,
    "latitude": 45.8333
  },
  {
    "departement": 1,
    "ville": "AMBUTRIX",
    "longitude": 5.33333,
    "latitude": 45.9333
  },
  {
    "departement": 1,
    "ville": "SAINTE-CROIX",
    "longitude": 5.05195,
    "latitude": 45.8942
  },
  {
    "departement": 1,
    "ville": "BLYES",
    "longitude": 5.25,
    "latitude": 45.85
  },
  {
    "departement": 1,
    "ville": "CONZIEU",
    "longitude": 5.6,
    "latitude": 45.7333
  },
  {
    "departement": 1,
    "ville": "NIEVROZ",
    "longitude": 5.06667,
    "latitude": 45.8333
  },
  {
    "departement": 1,
    "ville": "NURIEUX-VOLOGNAT",
    "longitude": 5.52667,
    "latitude": 46.1856
  },
  {
    "departement": 1,
    "ville": "AMBLEON",
    "longitude": 5.6,
    "latitude": 45.75
  },
  {
    "departement": 1,
    "ville": "SAINT-MAURICE-DE-GOURDANS",
    "longitude": 5.2,
    "latitude": 45.8167
  },
  {
    "departement": 1,
    "ville": "CHEZERY-FORENS",
    "longitude": 5.88333,
    "latitude": 46.2167
  },
  {
    "departement": 1,
    "ville": "SAULT-BRENAZ",
    "longitude": 5.41667,
    "latitude": 45.85
  },
  {
    "departement": 1,
    "ville": "MURS-ET-GELIGNIEUX",
    "longitude": 5.66667,
    "latitude": 45.6333
  },
  {
    "departement": 1,
    "ville": "LE PETIT-ABERGEMENT",
    "longitude": 5.65,
    "latitude": 46.0333
  },
  {
    "departement": 1,
    "ville": "CORMOZ",
    "longitude": 5.23333,
    "latitude": 46.45
  },
  {
    "departement": 1,
    "ville": "SAINT-MARTIN-DE-BAVEL",
    "longitude": 5.68333,
    "latitude": 45.85
  },
  {
    "departement": 1,
    "ville": "SAINT-TRIVIER-DE-COURTES",
    "longitude": 5.08333,
    "latitude": 46.4667
  },
  {
    "departement": 1,
    "ville": "BOYEUX-SAINT-JEROME",
    "longitude": 5.46667,
    "latitude": 46.0333
  },
  {
    "departement": 1,
    "ville": "CHATEAU-GAILLARD",
    "longitude": 5.3,
    "latitude": 45.9667
  },
  {
    "departement": 1,
    "ville": "PREMEYZEL",
    "longitude": 5.65,
    "latitude": 45.6833
  },
  {
    "departement": 1,
    "ville": "ARANDAS",
    "longitude": 5.48333,
    "latitude": 45.9
  },
  {
    "departement": 1,
    "ville": "CHATENAY",
    "longitude": 5.2,
    "latitude": 46.0333
  },
  {
    "departement": 1,
    "ville": "INNIMOND",
    "longitude": 5.56667,
    "latitude": 45.7833
  },
  {
    "departement": 1,
    "ville": "BOZ",
    "longitude": 4.9,
    "latitude": 46.4
  },
  {
    "departement": 1,
    "ville": "BRIORD",
    "longitude": 5.46667,
    "latitude": 45.7833
  },
  {
    "departement": 1,
    "ville": "REYRIEUX",
    "longitude": 4.81667,
    "latitude": 45.9333
  },
  {
    "departement": 1,
    "ville": "MATAFELON-GRANGES",
    "longitude": 5.56667,
    "latitude": 46.2667
  },
  {
    "departement": 1,
    "ville": "DROM",
    "longitude": 5.36667,
    "latitude": 46.2167
  },
  {
    "departement": 1,
    "ville": "CHATILLON-EN-MICHAILLE",
    "longitude": 5.78333,
    "latitude": 46.1333
  },
  {
    "departement": 1,
    "ville": "POLLIAT",
    "longitude": 5.13333,
    "latitude": 46.25
  },
  {
    "departement": 1,
    "ville": "VESANCY",
    "longitude": 6.08333,
    "latitude": 46.35
  },
  {
    "departement": 1,
    "ville": "MASSIEUX",
    "longitude": 4.83333,
    "latitude": 45.9167
  },
  {
    "departement": 1,
    "ville": "SAINT-CYR-SUR-MENTHON",
    "longitude": 4.98333,
    "latitude": 46.2667
  },
  {
    "departement": 1,
    "ville": "SERRIERES-SUR-AIN",
    "longitude": 5.45,
    "latitude": 46.15
  },
  {
    "departement": 1,
    "ville": "NIVOLLET-MONTGRIFFON",
    "longitude": 5.43333,
    "latitude": 45.9833
  },
  {
    "departement": 1,
    "ville": "IZERNORE",
    "longitude": 5.55,
    "latitude": 46.2167
  },
  {
    "departement": 1,
    "ville": "SAINT-NIZIER-LE-DESERT",
    "longitude": 5.15,
    "latitude": 46.05
  },
  {
    "departement": 1,
    "ville": "GUEREINS",
    "longitude": 4.78333,
    "latitude": 46.1
  },
  {
    "departement": 1,
    "ville": "ILLIAT",
    "longitude": 4.88333,
    "latitude": 46.1833
  },
  {
    "departement": 1,
    "ville": "LA TRANCLIERE",
    "longitude": 5.26667,
    "latitude": 46.1167
  },
  {
    "departement": 1,
    "ville": "SAINT-DIDIER-DE-FORMANS",
    "longitude": 4.78333,
    "latitude": 45.95
  },
  {
    "departement": 1,
    "ville": "MERIGNAT",
    "longitude": 5.43333,
    "latitude": 46.0667
  },
  {
    "departement": 1,
    "ville": "SAINT-ELOI",
    "longitude": 5.15,
    "latitude": 45.9333
  },
  {
    "departement": 1,
    "ville": "LA CHAPELLE-DU-CHATELARD",
    "longitude": 5.03333,
    "latitude": 46.0667
  },
  {
    "departement": 1,
    "ville": "SAINT-JEAN-DE-NIOST",
    "longitude": 5.21667,
    "latitude": 45.8333
  },
  {
    "departement": 1,
    "ville": "SAVIGNEUX",
    "longitude": 4.85,
    "latitude": 46
  },
  {
    "departement": 1,
    "ville": "NATTAGES",
    "longitude": 5.76667,
    "latitude": 45.7333
  },
  {
    "departement": 1,
    "ville": "SAINT-BENOIT",
    "longitude": 5.58333,
    "latitude": 45.7
  },
  {
    "departement": 1,
    "ville": "DOUVRES",
    "longitude": 5.36667,
    "latitude": 45.9833
  },
  {
    "departement": 1,
    "ville": "FRANCHELEINS",
    "longitude": 4.8,
    "latitude": 46.0667
  },
  {
    "departement": 1,
    "ville": "DORTAN",
    "longitude": 5.66667,
    "latitude": 46.3167
  },
  {
    "departement": 1,
    "ville": "SAINT-GERMAIN-LES-PAROISSES",
    "longitude": 5.61667,
    "latitude": 45.7667
  },
  {
    "departement": 1,
    "ville": "MIRIBEL",
    "longitude": 4.95306,
    "latitude": 45.8245
  },
  {
    "departement": 1,
    "ville": "LANCRANS",
    "longitude": 5.83333,
    "latitude": 46.1333
  },
  {
    "departement": 1,
    "ville": "ECHENEVEX",
    "longitude": 6.03333,
    "latitude": 46.3167
  },
  {
    "departement": 1,
    "ville": "SAINT-JEAN-SUR-VEYLE",
    "longitude": 4.91667,
    "latitude": 46.25
  },
  {
    "departement": 1,
    "ville": "BILLIAT",
    "longitude": 5.78333,
    "latitude": 46.0667
  },
  {
    "departement": 1,
    "ville": "L'ABERGEMENT-DE-VAREY",
    "longitude": 5.41667,
    "latitude": 46
  },
  {
    "departement": 1,
    "ville": "villeNEUVE",
    "longitude": 4.83667,
    "latitude": 46.0212
  },
  {
    "departement": 1,
    "ville": "VILLARS-LES-DOMBES",
    "longitude": 5.01667,
    "latitude": 46
  },
  {
    "departement": 1,
    "ville": "THEZILLIEU",
    "longitude": 5.6,
    "latitude": 45.8833
  },
  {
    "departement": 1,
    "ville": "SAINT-ETIENNE-SUR-REYSSOUZE",
    "longitude": 5,
    "latitude": 46.4
  },
  {
    "departement": 1,
    "ville": "SOUCLIN",
    "longitude": 5.41667,
    "latitude": 45.8667
  },
  {
    "departement": 1,
    "ville": "SAINT-JUST",
    "longitude": 5.28,
    "latitude": 46.1903
  },
  {
    "departement": 1,
    "ville": "CIVRIEUX",
    "longitude": 4.88333,
    "latitude": 45.9167
  },
  {
    "departement": 1,
    "ville": "ARGIS",
    "longitude": 5.48333,
    "latitude": 45.9333
  },
  {
    "departement": 1,
    "ville": "TALISSIEU",
    "longitude": 5.71667,
    "latitude": 45.8667
  },
  {
    "departement": 1,
    "ville": "BIRIEUX",
    "longitude": 5.03333,
    "latitude": 45.95
  },
  {
    "departement": 1,
    "ville": "SAINT-JULIEN-SUR-VEYLE",
    "longitude": 4.95,
    "latitude": 46.2
  },
  {
    "departement": 1,
    "ville": "THOIRY",
    "longitude": 5.97973,
    "latitude": 46.2364
  },
  {
    "departement": 1,
    "ville": "LAIZ",
    "longitude": 4.88333,
    "latitude": 46.25
  },
  {
    "departement": 1,
    "ville": "CRESSIN-ROCHEFORT",
    "longitude": 5.76667,
    "latitude": 45.7667
  },
  {
    "departement": 1,
    "ville": "SAINT-CHAMP",
    "longitude": 5.73333,
    "latitude": 45.7833
  },
  {
    "departement": 1,
    "ville": "SAINT-GEORGES-SUR-RENON",
    "longitude": 5.03333,
    "latitude": 46.1
  },
  {
    "departement": 1,
    "ville": "LANTENAY",
    "longitude": 5.53333,
    "latitude": 46.05
  },
  {
    "departement": 1,
    "ville": "VERNOUX",
    "longitude": 5.11667,
    "latitude": 46.4833
  },
  {
    "departement": 1,
    "ville": "CORMARANCHE-EN-BUGEY",
    "longitude": 5.6,
    "latitude": 45.95
  },
  {
    "departement": 1,
    "ville": "SAINTE-EUPHEMIE",
    "longitude": 4.78333,
    "latitude": 45.9667
  },
  {
    "departement": 1,
    "ville": "BEAUPONT",
    "longitude": 5.26667,
    "latitude": 46.4
  },
  {
    "departement": 1,
    "ville": "BRENS",
    "longitude": 5.69473,
    "latitude": 45.7187
  },
  {
    "departement": 1,
    "ville": "RAMASSE",
    "longitude": 5.35,
    "latitude": 46.2
  },
  {
    "departement": 1,
    "ville": "DIVONNE-LES-BAINS",
    "longitude": 6.13333,
    "latitude": 46.3667
  },
  {
    "departement": 1,
    "ville": "LEAZ",
    "longitude": 5.88333,
    "latitude": 46.1
  },
  {
    "departement": 1,
    "ville": "villeS",
    "longitude": 5.78333,
    "latitude": 46.0833
  },
  {
    "departement": 1,
    "ville": "SAINT-JULIEN-SUR-REYSSOUZE",
    "longitude": 5.11667,
    "latitude": 46.4
  },
  {
    "departement": 1,
    "ville": "GROSLEE",
    "longitude": 5.56667,
    "latitude": 45.7167
  },
  {
    "departement": 1,
    "ville": "VANDEINS",
    "longitude": 5.08333,
    "latitude": 46.2167
  },
  {
    "departement": 1,
    "ville": "VERJON",
    "longitude": 5.35,
    "latitude": 46.35
  },
  {
    "departement": 1,
    "ville": "SAINT-ANDRE-SUR-VIEUX-JONC",
    "longitude": 5.06667,
    "latitude": 46.15
  },
  {
    "departement": 1,
    "ville": "SAINT-ANDRE-D'HUIRIAT",
    "longitude": 4.91667,
    "latitude": 46.2167
  },
  {
    "departement": 1,
    "ville": "GRILLY",
    "longitude": 6.11667,
    "latitude": 46.3333
  },
  {
    "departement": 1,
    "ville": "CESSY",
    "longitude": 6.06667,
    "latitude": 46.3167
  },
  {
    "departement": 1,
    "ville": "ORDONNAZ",
    "longitude": 5.53333,
    "latitude": 45.8333
  },
  {
    "departement": 1,
    "ville": "VESCOURS",
    "longitude": 5.03333,
    "latitude": 46.4667
  },
  {
    "departement": 1,
    "ville": "MEILLONNAS",
    "longitude": 5.35,
    "latitude": 46.25
  },
  {
    "departement": 1,
    "ville": "GEOVREISSET",
    "longitude": 5.6,
    "latitude": 46.25
  },
  {
    "departement": 1,
    "ville": "CEYZERIEU",
    "longitude": 5.73333,
    "latitude": 45.8333
  },
  {
    "departement": 1,
    "ville": "BEARD-GEOVREISSIAT",
    "longitude": 5.56667,
    "latitude": 46.2
  },
  {
    "departement": 1,
    "ville": "LA BURBANCHE",
    "longitude": 5.56667,
    "latitude": 45.85
  },
  {
    "departement": 1,
    "ville": "PERREX",
    "longitude": 4.98333,
    "latitude": 46.2333
  },
  {
    "departement": 1,
    "ville": "villeMOTIER",
    "longitude": 5.31667,
    "latitude": 46.35
  },
  {
    "departement": 1,
    "ville": "JASSERON",
    "longitude": 5.33333,
    "latitude": 46.2167
  },
  {
    "departement": 1,
    "ville": "CORVEISSIAT",
    "longitude": 5.48333,
    "latitude": 46.2333
  },
  {
    "departement": 1,
    "ville": "JOURNANS",
    "longitude": 5.33333,
    "latitude": 46.15
  },
  {
    "departement": 1,
    "ville": "SERMOYER",
    "longitude": 4.98333,
    "latitude": 46.5
  },
  {
    "departement": 1,
    "ville": "CHARIX",
    "longitude": 5.68333,
    "latitude": 46.1833
  },
  {
    "departement": 1,
    "ville": "ARBIGNIEU",
    "longitude": 5.65,
    "latitude": 45.7333
  },
  {
    "departement": 1,
    "ville": "LEYSSARD",
    "longitude": 5.46667,
    "latitude": 46.1667
  },
  {
    "departement": 1,
    "ville": "SAINT-JEAN-DE-THURIGNEUX",
    "longitude": 4.88333,
    "latitude": 45.95
  },
  {
    "departement": 1,
    "ville": "FRANS",
    "longitude": 4.78333,
    "latitude": 45.9833
  },
  {
    "departement": 1,
    "ville": "TENAY",
    "longitude": 5.5,
    "latitude": 45.9167
  },
  {
    "departement": 1,
    "ville": "BAGE-LA-ville",
    "longitude": 4.95,
    "latitude": 46.3167
  },
  {
    "departement": 1,
    "ville": "MONTMERLE-SUR-SAONE",
    "longitude": 4.76667,
    "latitude": 46.0833
  },
  {
    "departement": 1,
    "ville": "COURMANGOUX",
    "longitude": 5.36667,
    "latitude": 46.3333
  },
  {
    "departement": 1,
    "ville": "BANEINS",
    "longitude": 4.9,
    "latitude": 46.1167
  },
  {
    "departement": 1,
    "ville": "LAGNIEU",
    "longitude": 5.35,
    "latitude": 45.9
  },
  {
    "departement": 1,
    "ville": "ATTIGNAT",
    "longitude": 5.16667,
    "latitude": 46.2833
  },
  {
    "departement": 1,
    "ville": "SAINT-ANDRE-DE-BAGE",
    "longitude": 4.91667,
    "latitude": 46.3
  },
  {
    "departement": 1,
    "ville": "PONT-DE-VAUX",
    "longitude": 4.93333,
    "latitude": 46.4333
  },
  {
    "departement": 1,
    "ville": "AMBERIEU-EN-BUGEY",
    "longitude": 5.35,
    "latitude": 45.95
  },
  {
    "departement": 1,
    "ville": "PEYZIEUX-SUR-SAONE",
    "longitude": 4.81667,
    "latitude": 46.1167
  },
  {
    "departement": 1,
    "ville": "CROZET",
    "longitude": 6.01251,
    "latitude": 46.2806
  },
  {
    "departement": 1,
    "ville": "SEYSSEL",
    "longitude": 5.83194,
    "latitude": 45.9597
  },
  {
    "departement": 1,
    "ville": "BEYNOST",
    "longitude": 5,
    "latitude": 45.8333
  },
  {
    "departement": 1,
    "ville": "VERSONNEX",
    "longitude": 6.09723,
    "latitude": 46.3023
  },
  {
    "departement": 1,
    "ville": "SAINT-LAURENT-SUR-SAONE",
    "longitude": 4.83333,
    "latitude": 46.3
  },
  {
    "departement": 1,
    "ville": "ARTEMARE",
    "longitude": 5.7,
    "latitude": 45.8667
  },
  {
    "departement": 1,
    "ville": "MONTRACOL",
    "longitude": 5.11667,
    "latitude": 46.1833
  },
  {
    "departement": 1,
    "ville": "PARVES",
    "longitude": 5.75,
    "latitude": 45.75
  },
  {
    "departement": 1,
    "ville": "PUGIEU",
    "longitude": 5.65,
    "latitude": 45.8167
  },
  {
    "departement": 1,
    "ville": "VIRIEU-LE-GRAND",
    "longitude": 5.65,
    "latitude": 45.85
  },
  {
    "departement": 1,
    "ville": "SAINT-REMY",
    "longitude": 5.16667,
    "latitude": 46.1833
  },
  {
    "departement": 1,
    "ville": "RANCE",
    "longitude": 4.86667,
    "latitude": 45.9667
  },
  {
    "departement": 1,
    "ville": "GRIEGES",
    "longitude": 4.85,
    "latitude": 46.25
  },
  {
    "departement": 1,
    "ville": "GRAND-CORENT",
    "longitude": 5.43333,
    "latitude": 46.2
  },
  {
    "departement": 1,
    "ville": "OUTRIAZ",
    "longitude": 5.55,
    "latitude": 46.0667
  },
  {
    "departement": 1,
    "ville": "MONTAGNIEU",
    "longitude": 5.46667,
    "latitude": 45.8
  },
  {
    "departement": 1,
    "ville": "CHAMPAGNE-EN-VALROMEY",
    "longitude": 5.68333,
    "latitude": 45.9
  },
  {
    "departement": 1,
    "ville": "AMBERIEUX-EN-DOMBES",
    "longitude": 4.9,
    "latitude": 46
  },
  {
    "departement": 1,
    "ville": "LA BOISSE",
    "longitude": 5.03333,
    "latitude": 45.85
  },
  {
    "departement": 1,
    "ville": "PARCIEUX",
    "longitude": 4.81667,
    "latitude": 45.9167
  },
  {
    "departement": 1,
    "ville": "SAINT-DIDIER-D'AUSSIAT",
    "longitude": 5.06667,
    "latitude": 46.3
  },
  {
    "departement": 1,
    "ville": "SAINT-NIZIER-LE-BOUCHOUX",
    "longitude": 5.15,
    "latitude": 46.45
  },
  {
    "departement": 1,
    "ville": "ARS-SUR-FORMANS",
    "longitude": 4.81667,
    "latitude": 45.9833
  },
  {
    "departement": 1,
    "ville": "ANGLEFORT",
    "longitude": 5.80833,
    "latitude": 45.9167
  },
  {
    "departement": 1,
    "ville": "CORLIER",
    "longitude": 5.5,
    "latitude": 46.0333
  },
  {
    "departement": 1,
    "ville": "FERNEY-VOLTAIRE",
    "longitude": 6.11667,
    "latitude": 46.25
  },
  {
    "departement": 1,
    "ville": "SAINT-MAURICE-DE-REMENS",
    "longitude": 5.28333,
    "latitude": 45.95
  },
  {
    "departement": 1,
    "ville": "CHATILLON-LA-PALUD",
    "longitude": 5.25,
    "latitude": 45.9667
  },
  {
    "departement": 1,
    "ville": "SAINT-SULPICE",
    "longitude": 5.04167,
    "latitude": 46.3203
  },
  {
    "departement": 1,
    "ville": "SAINT-BOIS",
    "longitude": 5.63333,
    "latitude": 45.7
  },
  {
    "departement": 1,
    "ville": "VIRIGNIN",
    "longitude": 5.71667,
    "latitude": 45.7167
  },
  {
    "departement": 1,
    "ville": "PREMILLIEU",
    "longitude": 5.56667,
    "latitude": 45.8667
  },
  {
    "departement": 1,
    "ville": "GENOUILLEUX",
    "longitude": 4.78333,
    "latitude": 46.1167
  },
  {
    "departement": 1,
    "ville": "REYSSOUZE",
    "longitude": 4.91667,
    "latitude": 46.4333
  },
  {
    "departement": 1,
    "ville": "COLLONGES",
    "longitude": 5.9,
    "latitude": 46.1333
  },
  {
    "departement": 1,
    "ville": "SAINT-GERMAIN-DE-JOUX",
    "longitude": 5.73333,
    "latitude": 46.1833
  },
  {
    "departement": 1,
    "ville": "BREGNIER-CORDON",
    "longitude": 5.61667,
    "latitude": 45.65
  },
  {
    "departement": 1,
    "ville": "SAINT-MARTIN-LE-CHATEL",
    "longitude": 5.11667,
    "latitude": 46.2833
  },
  {
    "departement": 1,
    "ville": "MARIGNIEU",
    "longitude": 5.71667,
    "latitude": 45.8
  },
  {
    "departement": 1,
    "ville": "LES NEYROLLES",
    "longitude": 5.63333,
    "latitude": 46.1333
  },
  {
    "departement": 1,
    "ville": "SULIGNAT",
    "longitude": 4.96667,
    "latitude": 46.1667
  },
  {
    "departement": 1,
    "ville": "BENY",
    "longitude": 5.28333,
    "latitude": 46.3333
  },
  {
    "departement": 1,
    "ville": "INJOUX-GENISSIAT",
    "longitude": 5.78333,
    "latitude": 46.05
  },
  {
    "departement": 1,
    "ville": "CHANAY",
    "longitude": 5.78333,
    "latitude": 46
  },
  {
    "departement": 1,
    "ville": "CHATILLON-SUR-CHALARONNE",
    "longitude": 4.96667,
    "latitude": 46.1167
  },
  {
    "departement": 1,
    "ville": "FARGES",
    "longitude": 5.91667,
    "latitude": 46.1667
  },
  {
    "departement": 1,
    "ville": "SAINT-ALBAN",
    "longitude": 5.45,
    "latitude": 46.1
  },
  {
    "departement": 1,
    "ville": "CURTAFOND",
    "longitude": 5.08333,
    "latitude": 46.2667
  },
  {
    "departement": 1,
    "ville": "VIRIAT",
    "longitude": 5.21667,
    "latitude": 46.25
  },
  {
    "departement": 1,
    "ville": "BELLEYDOUX",
    "longitude": 5.76667,
    "latitude": 46.25
  },
  {
    "departement": 1,
    "ville": "BAGE-LE-CHATEL",
    "longitude": 4.93333,
    "latitude": 46.3
  },
  {
    "departement": 1,
    "ville": "SAINTE-OLIVE",
    "longitude": 4.93333,
    "latitude": 46.0167
  },
  {
    "departement": 1,
    "ville": "SAINT-GENIS-SUR-MENTHON",
    "longitude": 5.01667,
    "latitude": 46.2833
  },
  {
    "departement": 1,
    "ville": "DOMSURE",
    "longitude": 5.3,
    "latitude": 46.4167
  },
  {
    "departement": 1,
    "ville": "CHAVANNES-SUR-SURAN",
    "longitude": 5.41667,
    "latitude": 46.2667
  },
  {
    "departement": 1,
    "ville": "PRIAY",
    "longitude": 5.28333,
    "latitude": 46
  },
  {
    "departement": 1,
    "ville": "PEYRIEU",
    "longitude": 5.67751,
    "latitude": 45.6767
  },
  {
    "departement": 1,
    "ville": "LALLEYRIAT",
    "longitude": 5.71667,
    "latitude": 46.15
  },
  {
    "departement": 1,
    "ville": "SERGY",
    "longitude": 6,
    "latitude": 46.25
  },
  {
    "departement": 1,
    "ville": "SAINT-MARTIN-DU-FRENE",
    "longitude": 5.55,
    "latitude": 46.1333
  },
  {
    "departement": 1,
    "ville": "SAINT-MAURICE-DE-BEYNOST",
    "longitude": 4.96667,
    "latitude": 45.8333
  },
  {
    "departement": 1,
    "ville": "SERVAS",
    "longitude": 5.16667,
    "latitude": 46.1333
  },
  {
    "departement": 1,
    "ville": "CUZIEU",
    "longitude": 5.67445,
    "latitude": 45.8192
  },
  {
    "departement": 1,
    "ville": "JAYAT",
    "longitude": 5.11667,
    "latitude": 46.3667
  },
  {
    "departement": 1,
    "ville": "LAVOURS",
    "longitude": 5.76667,
    "latitude": 45.8
  },
  {
    "departement": 1,
    "ville": "CHEVROUX",
    "longitude": 4.95,
    "latitude": 46.3833
  },
  {
    "departement": 1,
    "ville": "POLLIEU",
    "longitude": 5.75,
    "latitude": 45.8
  },
  {
    "departement": 1,
    "ville": "BELIGNEUX",
    "longitude": 5.11667,
    "latitude": 45.8667
  },
  {
    "departement": 1,
    "ville": "BRENAZ",
    "longitude": 5.71667,
    "latitude": 45.95
  },
  {
    "departement": 1,
    "ville": "BENONCES",
    "longitude": 5.48333,
    "latitude": 45.8333
  },
  {
    "departement": 1,
    "ville": "SAINT-JEAN-LE-VIEUX",
    "longitude": 5.38917,
    "latitude": 46.0284
  },
  {
    "departement": 1,
    "ville": "BEAUREGARD",
    "longitude": 4.75139,
    "latitude": 46.002
  },
  {
    "departement": 1,
    "ville": "OYONNAX",
    "longitude": 5.66667,
    "latitude": 46.25
  },
  {
    "departement": 1,
    "ville": "MIONNAY",
    "longitude": 4.93333,
    "latitude": 45.9
  },
  {
    "departement": 1,
    "ville": "GERMAGNAT",
    "longitude": 5.45,
    "latitude": 46.3167
  },
  {
    "departement": 1,
    "ville": "COLIGNY",
    "longitude": 5.35,
    "latitude": 46.3833
  },
  {
    "departement": 1,
    "ville": "SIMANDRE-SUR-SURAN",
    "longitude": 5.41667,
    "latitude": 46.2167
  },
  {
    "departement": 1,
    "ville": "L'ABERGEMENT-CLEMENCIAT",
    "longitude": 4.91667,
    "latitude": 46.15
  },
  {
    "departement": 1,
    "ville": "LESCHEROUX",
    "longitude": 5.15,
    "latitude": 46.4
  },
  {
    "departement": 1,
    "ville": "ORNEX",
    "longitude": 6.1,
    "latitude": 46.2833
  },
  {
    "departement": 1,
    "ville": "DOMMARTIN",
    "longitude": 4.99167,
    "latitude": 46.3417
  },
  {
    "departement": 1,
    "ville": "LOMPNAS",
    "longitude": 5.51667,
    "latitude": 45.8
  },
  {
    "departement": 1,
    "ville": "BETTANT",
    "longitude": 5.36667,
    "latitude": 45.9333
  },
  {
    "departement": 1,
    "ville": "ARMIX",
    "longitude": 5.58333,
    "latitude": 45.85
  },
  {
    "departement": 1,
    "ville": "FEILLENS",
    "longitude": 4.88333,
    "latitude": 46.3333
  },
  {
    "departement": 1,
    "ville": "CHAVORNAY",
    "longitude": 5.7,
    "latitude": 45.8833
  },
  {
    "departement": 1,
    "ville": "CHALLEX",
    "longitude": 5.96667,
    "latitude": 46.1833
  },
  {
    "departement": 1,
    "ville": "VONGNES",
    "longitude": 5.71667,
    "latitude": 45.8167
  },
  {
    "departement": 1,
    "ville": "MAGNIEU",
    "longitude": 5.71667,
    "latitude": 45.7833
  },
  {
    "departement": 1,
    "ville": "GROISSIAT",
    "longitude": 5.6,
    "latitude": 46.2167
  },
  {
    "departement": 1,
    "ville": "DOMPIERRE-SUR-CHALARONNE",
    "longitude": 4.9,
    "latitude": 46.1333
  },
  {
    "departement": 1,
    "ville": "MONTLUEL",
    "longitude": 5.05,
    "latitude": 45.85
  },
  {
    "departement": 1,
    "ville": "LE POIZAT",
    "longitude": 5.7,
    "latitude": 46.15
  },
  {
    "departement": 1,
    "ville": "HOSTIAZ",
    "longitude": 5.53333,
    "latitude": 45.9
  },
  {
    "departement": 1,
    "ville": "MONTANGES",
    "longitude": 5.8,
    "latitude": 46.1667
  },
  {
    "departement": 1,
    "ville": "SAINTE-JULIE",
    "longitude": 5.28333,
    "latitude": 45.8833
  },
  {
    "departement": 1,
    "ville": "BEY",
    "longitude": 4.85,
    "latitude": 46.2167
  },
  {
    "departement": 1,
    "ville": "SONTHONNAX-LA-MONTAGNE",
    "longitude": 5.53333,
    "latitude": 46.2333
  },
  {
    "departement": 1,
    "ville": "MEZERIAT",
    "longitude": 5.03333,
    "latitude": 46.2333
  },
  {
    "departement": 1,
    "ville": "BELLIGNAT",
    "longitude": 5.61667,
    "latitude": 46.25
  },
  {
    "departement": 1,
    "ville": "SAINT-MARCEL",
    "longitude": 4.98723,
    "latitude": 45.9487
  },
  {
    "departement": 1,
    "ville": "BELLEY",
    "longitude": 5.68333,
    "latitude": 45.7667
  },
  {
    "departement": 1,
    "ville": "CORBONOD",
    "longitude": 5.81667,
    "latitude": 45.95
  },
  {
    "departement": 1,
    "ville": "NEYRON",
    "longitude": 4.93223,
    "latitude": 45.8148
  },
  {
    "departement": 1,
    "ville": "SAINT-PAUL-DE-VARAX",
    "longitude": 5.13333,
    "latitude": 46.1
  },
  {
    "departement": 1,
    "ville": "PRESSIAT",
    "longitude": 5.38333,
    "latitude": 46.3333
  },
  {
    "departement": 1,
    "ville": "CHAZEY-BONS",
    "longitude": 5.68333,
    "latitude": 45.8
  },
  {
    "departement": 1,
    "ville": "SERVIGNAT",
    "longitude": 5.06667,
    "latitude": 46.4333
  },
  {
    "departement": 1,
    "ville": "MARLIEUX",
    "longitude": 5.06667,
    "latitude": 46.0667
  },
  {
    "departement": 1,
    "ville": "ANDERT-ET-CONDON",
    "longitude": 5.65,
    "latitude": 45.8
  },
  {
    "departement": 1,
    "ville": "HAUTECOURT-ROMANECHE",
    "longitude": 5.41667,
    "latitude": 46.1583
  },
  {
    "departement": 1,
    "ville": "CROTTET",
    "longitude": 4.9,
    "latitude": 46.2833
  },
  {
    "departement": 1,
    "ville": "DRUILLAT",
    "longitude": 5.31667,
    "latitude": 46.0667
  },
  {
    "departement": 1,
    "ville": "DOMPIERRE-SUR-VEYLE",
    "longitude": 5.2,
    "latitude": 46.0667
  },
  {
    "departement": 1,
    "ville": "PEROUGES",
    "longitude": 5.18333,
    "latitude": 45.9
  },
  {
    "departement": 1,
    "ville": "RIGNIEUX-LE-FRANC",
    "longitude": 5.18333,
    "latitude": 45.9333
  },
  {
    "departement": 1,
    "ville": "GIRON",
    "longitude": 5.76667,
    "latitude": 46.2333
  },
  {
    "departement": 1,
    "ville": "CERDON",
    "longitude": 5.46667,
    "latitude": 46.0833
  },
  {
    "departement": 1,
    "ville": "CRUZILLES-LES-MEPILLAT",
    "longitude": 4.88333,
    "latitude": 46.2167
  },
  {
    "departement": 1,
    "ville": "LELEX",
    "longitude": 5.95,
    "latitude": 46.3
  },
  {
    "departement": 1,
    "ville": "LHOPITAL",
    "longitude": 5.77834,
    "latitude": 46.0217
  },
  {
    "departement": 1,
    "ville": "SEGNY",
    "longitude": 6.08333,
    "latitude": 46.3
  },
  {
    "departement": 1,
    "ville": "CHEIGNIEU-LA-BALME",
    "longitude": 5.61667,
    "latitude": 45.8333
  },
  {
    "departement": 1,
    "ville": "SAINT-VULBAS",
    "longitude": 5.28333,
    "latitude": 45.8333
  },
  {
    "departement": 1,
    "ville": "ECHALLON",
    "longitude": 5.74139,
    "latitude": 46.21
  },
  {
    "departement": 1,
    "ville": "LE MONTELLIER",
    "longitude": 5.06667,
    "latitude": 45.9333
  },
  {
    "departement": 1,
    "ville": "MARTIGNAT",
    "longitude": 5.6,
    "latitude": 46.2167
  },
  {
    "departement": 1,
    "ville": "CEYZERIAT",
    "longitude": 5.31667,
    "latitude": 46.1667
  },
  {
    "departement": 1,
    "ville": "MONTCET",
    "longitude": 5.11667,
    "latitude": 46.2
  },
  {
    "departement": 1,
    "ville": "VONNAS",
    "longitude": 5,
    "latitude": 46.2167
  },
  {
    "departement": 1,
    "ville": "BUELLAS",
    "longitude": 5.13333,
    "latitude": 46.2
  },
  {
    "departement": 1,
    "ville": "SAINT-BENIGNE",
    "longitude": 4.96667,
    "latitude": 46.4333
  },
  {
    "departement": 1,
    "ville": "CHEVILLARD",
    "longitude": 5.58333,
    "latitude": 46.1167
  },
  {
    "departement": 1,
    "ville": "BOULIGNEUX",
    "longitude": 5,
    "latitude": 46.0167
  },
  {
    "departement": 1,
    "ville": "CONTREVOZ",
    "longitude": 5.63333,
    "latitude": 45.8
  },
  {
    "departement": 1,
    "ville": "CHAMPDOR",
    "longitude": 5.6,
    "latitude": 46.0167
  },
  {
    "departement": 1,
    "ville": "PORT",
    "longitude": 5.56667,
    "latitude": 46.1667
  },
  {
    "departement": 1,
    "ville": "SURJOUX",
    "longitude": 5.8,
    "latitude": 46.0167
  },
  {
    "departement": 1,
    "ville": "CHAMPFROMIER",
    "longitude": 5.81667,
    "latitude": 46.2
  },
  {
    "departement": 1,
    "ville": "VESINES",
    "longitude": 4.86667,
    "latitude": 46.35
  },
  {
    "departement": 1,
    "ville": "SEILLONNAZ",
    "longitude": 5.48333,
    "latitude": 45.8
  },
  {
    "departement": 1,
    "ville": "VARAMBON",
    "longitude": 5.31667,
    "latitude": 46.0333
  },
  {
    "departement": 1,
    "ville": "LE GRAND-ABERGEMENT",
    "longitude": 5.66667,
    "latitude": 46.0333
  },
  {
    "departement": 1,
    "ville": "JASSANS-RIOTTIER",
    "longitude": 4.75,
    "latitude": 45.9833
  },
  {
    "departement": 1,
    "ville": "ASNIERES-SUR-SAONE",
    "longitude": 4.88333,
    "latitude": 46.3833
  },
  {
    "departement": 1,
    "ville": "CONDAMINE",
    "longitude": 5.56667,
    "latitude": 46.1167
  },
  {
    "departement": 1,
    "ville": "LHUIS",
    "longitude": 5.53333,
    "latitude": 45.75
  },
  {
    "departement": 1,
    "ville": "ROMANS",
    "longitude": 5.03333,
    "latitude": 46.1167
  },
  {
    "departement": 1,
    "ville": "PIZAY",
    "longitude": 5.08333,
    "latitude": 45.8833
  },
  {
    "departement": 1,
    "ville": "CERTINES",
    "longitude": 5.26667,
    "latitude": 46.1333
  },
  {
    "departement": 1,
    "ville": "RUFFIEU",
    "longitude": 5.66667,
    "latitude": 46
  },
  {
    "departement": 1,
    "ville": "MEXIMIEUX",
    "longitude": 5.2,
    "latitude": 45.9
  },
  {
    "departement": 1,
    "ville": "SAINT-RAMBERT-EN-BUGEY",
    "longitude": 5.43333,
    "latitude": 45.95
  },
  {
    "departement": 1,
    "ville": "AMBRONAY",
    "longitude": 5.35,
    "latitude": 46
  },
  {
    "departement": 1,
    "ville": "CIZE",
    "longitude": 5.43333,
    "latitude": 46.2
  },
  {
    "departement": 1,
    "ville": "SAINT-GERMAIN-SUR-RENON",
    "longitude": 5.05,
    "latitude": 46.0833
  },
  {
    "departement": 1,
    "ville": "villeTTE-SUR-AIN",
    "longitude": 5.26862,
    "latitude": 45.9884
  },
  {
    "departement": 1,
    "ville": "DAGNEUX",
    "longitude": 5.06667,
    "latitude": 45.85
  },
  {
    "departement": 1,
    "ville": "BOISSEY",
    "longitude": 5,
    "latitude": 46.3833
  },
  {
    "departement": 1,
    "ville": "SALAVRE",
    "longitude": 5.35,
    "latitude": 46.3667
  },
  {
    "departement": 1,
    "ville": "BRION",
    "longitude": 5.55251,
    "latitude": 46.1728
  },
  {
    "departement": 1,
    "ville": "LABALME",
    "longitude": 5.48333,
    "latitude": 46.1
  },
  {
    "departement": 1,
    "ville": "SAUVERNY",
    "longitude": 6.11667,
    "latitude": 46.3167
  },
  {
    "departement": 1,
    "ville": "MONTCEAUX",
    "longitude": 4.8,
    "latitude": 46.1
  },
  {
    "departement": 1,
    "ville": "BRENOD",
    "longitude": 5.6,
    "latitude": 46.0667
  },
  {
    "departement": 1,
    "ville": "MISERIEUX",
    "longitude": 4.81667,
    "latitude": 45.9833
  },
  {
    "departement": 1,
    "ville": "PREVESSIN-MOENS",
    "longitude": 6.08333,
    "latitude": 46.25
  },
  {
    "departement": 1,
    "ville": "LENT",
    "longitude": 5.2,
    "latitude": 46.1167
  },
  {
    "departement": 1,
    "ville": "MARSONNAS",
    "longitude": 5.06667,
    "latitude": 46.3333
  },
  {
    "departement": 1,
    "ville": "MANZIAT",
    "longitude": 4.9,
    "latitude": 46.35
  },
  {
    "departement": 1,
    "ville": "TREVOUX",
    "longitude": 4.76667,
    "latitude": 45.9333
  },
  {
    "departement": 1,
    "ville": "BELLEGARDE-SUR-VALSERINE",
    "longitude": 5.81667,
    "latitude": 46.1
  },
  {
    "departement": 1,
    "ville": "BOURG-EN-BRESSE",
    "longitude": 5.21667,
    "latitude": 46.2
  },
  {
    "departement": 1,
    "ville": "CONFORT",
    "longitude": 5.81667,
    "latitude": 46.15
  },
  {
    "departement": 1,
    "ville": "SAINT-DENIS-LES-BOURG",
    "longitude": 5.2,
    "latitude": 46.2
  },
  {
    "departement": 1,
    "ville": "MASSIGNIEU-DE-RIVES",
    "longitude": 5.76667,
    "latitude": 45.75
  },
  {
    "departement": 1,
    "ville": "SAINT-ETIENNE-SUR-CHALARONNE",
    "longitude": 4.86667,
    "latitude": 46.15
  },
  {
    "departement": 1,
    "ville": "BOHAS-MEYRIAT-RIGNAT",
    "longitude": 5.4,
    "latitude": 46.1333
  },
  {
    "departement": 1,
    "ville": "CHEVRY",
    "longitude": 6.03333,
    "latitude": 46.2833
  },
  {
    "departement": 1,
    "ville": "FAREINS",
    "longitude": 4.76667,
    "latitude": 46.0167
  },
  {
    "departement": 1,
    "ville": "GORREVOD",
    "longitude": 4.95,
    "latitude": 46.4167
  },
  {
    "departement": 1,
    "ville": "VALEINS",
    "longitude": 4.86667,
    "latitude": 46.1167
  },
  {
    "departement": 1,
    "ville": "VIEU-D'IZENAVE",
    "longitude": 5.53333,
    "latitude": 46.0833
  },
  {
    "departement": 1,
    "ville": "TOUSSIEUX",
    "longitude": 4.83333,
    "latitude": 45.9667
  },
  {
    "departement": 1,
    "ville": "ARBIGNY",
    "longitude": 4.96667,
    "latitude": 46.4667
  },
  {
    "departement": 1,
    "ville": "MALAFRETAZ",
    "longitude": 5.15,
    "latitude": 46.3167
  },
  {
    "departement": 1,
    "ville": "SAMOGNAT",
    "longitude": 5.58333,
    "latitude": 46.25
  },
  {
    "departement": 1,
    "ville": "CRAS-SUR-REYSSOUZE",
    "longitude": 5.16667,
    "latitude": 46.3
  },
  {
    "departement": 1,
    "ville": "MESSIMY-SUR-SAONE",
    "longitude": 4.76473,
    "latitude": 46.0484
  },
  {
    "departement": 1,
    "ville": "POUGNY",
    "longitude": 5.95,
    "latitude": 46.1333
  },
  {
    "departement": 1,
    "ville": "SANDRANS",
    "longitude": 4.98333,
    "latitude": 46.0667
  },
  {
    "departement": 1,
    "ville": "PONT-DE-VEYLE",
    "longitude": 4.88333,
    "latitude": 46.2667
  },
  {
    "departement": 1,
    "ville": "MIJOUX",
    "longitude": 6,
    "latitude": 46.3667
  },
  {
    "departement": 1,
    "ville": "SAINT-JEAN-DE-GONville",
    "longitude": 5.95,
    "latitude": 46.2167
  },
  {
    "departement": 1,
    "ville": "SAINT-ANDRE-LE-BOUCHOUX",
    "longitude": 5.08333,
    "latitude": 46.1167
  },
  {
    "departement": 1,
    "ville": "CHANEINS",
    "longitude": 4.85,
    "latitude": 46.1
  },
  {
    "departement": 1,
    "ville": "JOYEUX",
    "longitude": 5.1,
    "latitude": 45.95
  },
  {
    "departement": 1,
    "ville": "TRAMOYES",
    "longitude": 4.96667,
    "latitude": 45.8667
  },
  {
    "departement": 1,
    "ville": "BIZIAT",
    "longitude": 4.93333,
    "latitude": 46.2167
  },
  {
    "departement": 1,
    "ville": "IZENAVE",
    "longitude": 5.53333,
    "latitude": 46.0333
  },
  {
    "departement": 1,
    "ville": "BELMONT-LUTHEZIEU",
    "longitude": 5.66167,
    "latitude": 45.8795
  },
  {
    "departement": 1,
    "ville": "ARBENT",
    "longitude": 5.68333,
    "latitude": 46.3
  },
  {
    "departement": 1,
    "ville": "SUTRIEU",
    "longitude": 5.65,
    "latitude": 45.95
  },
  {
    "departement": 1,
    "ville": "SERRIERES-DE-BRIORD",
    "longitude": 5.45445,
    "latitude": 45.8081
  },
  {
    "departement": 1,
    "ville": "ARANC",
    "longitude": 5.5,
    "latitude": 46
  },
  {
    "departement": 1,
    "ville": "CHALEY",
    "longitude": 5.53333,
    "latitude": 45.95
  },
  {
    "departement": 1,
    "ville": "CURCIAT-DONGALON",
    "longitude": 5.15,
    "latitude": 46.4667
  },
  {
    "departement": 1,
    "ville": "LOYETTES",
    "longitude": 5.2,
    "latitude": 45.7667
  },
  {
    "departement": 1,
    "ville": "GEX",
    "longitude": 6.06667,
    "latitude": 46.3333
  },
  {
    "departement": 1,
    "ville": "COURTES",
    "longitude": 5.1,
    "latitude": 46.4667
  },
  {
    "departement": 1,
    "ville": "BEREZIAT",
    "longitude": 5.05,
    "latitude": 46.3667
  },
  {
    "departement": 1,
    "ville": "LAPEYROUSE",
    "longitude": 4.96667,
    "latitude": 45.9833
  },
  {
    "departement": 1,
    "ville": "APREMONT",
    "longitude": 5.65833,
    "latitude": 46.2083
  },
  {
    "departement": 1,
    "ville": "VILLIEU-LOYES-MOLLON",
    "longitude": 5.22223,
    "latitude": 45.9206
  },
  {
    "departement": 1,
    "ville": "LEYMENT",
    "longitude": 5.3,
    "latitude": 45.9167
  },
  {
    "departement": 1,
    "ville": "ETREZ",
    "longitude": 5.18333,
    "latitude": 46.3333
  },
  {
    "departement": 2,
    "ville": "GERCY",
    "longitude": 3.86667,
    "latitude": 49.8167
  },
  {
    "departement": 2,
    "ville": "villeMONTOIRE",
    "longitude": 3.33333,
    "latitude": 49.3
  },
  {
    "departement": 2,
    "ville": "BRANCOURT-LE-GRAND",
    "longitude": 3.38333,
    "latitude": 49.9667
  },
  {
    "departement": 2,
    "ville": "LICY-CLIGNON",
    "longitude": 3.26667,
    "latitude": 49.1
  },
  {
    "departement": 2,
    "ville": "PROISY",
    "longitude": 3.73333,
    "latitude": 49.9
  },
  {
    "departement": 2,
    "ville": "CHAMBRY",
    "longitude": 3.65,
    "latitude": 49.6
  },
  {
    "departement": 2,
    "ville": "MONT-SAINT-JEAN",
    "longitude": 4.2,
    "latitude": 49.7833
  },
  {
    "departement": 2,
    "ville": "MORGNY-EN-THIERACHE",
    "longitude": 4.06667,
    "latitude": 49.7667
  },
  {
    "departement": 2,
    "ville": "MESNIL-SAINT-LAURENT",
    "longitude": 3.35,
    "latitude": 49.8333
  },
  {
    "departement": 2,
    "ville": "ANNOIS",
    "longitude": 3.16667,
    "latitude": 49.7167
  },
  {
    "departement": 2,
    "ville": "BRUNEHAMEL",
    "longitude": 4.18333,
    "latitude": 49.7667
  },
  {
    "departement": 2,
    "ville": "AUDIGNICOURT",
    "longitude": 3.13333,
    "latitude": 49.4833
  },
  {
    "departement": 2,
    "ville": "MONTIGNY-SUR-CRECY",
    "longitude": 3.58333,
    "latitude": 49.7167
  },
  {
    "departement": 2,
    "ville": "LOR",
    "longitude": 4.05,
    "latitude": 49.5333
  },
  {
    "departement": 2,
    "ville": "CHIVRES-EN-LAONNOIS",
    "longitude": 3.85,
    "latitude": 49.6333
  },
  {
    "departement": 2,
    "ville": "SAINT-GOBAIN",
    "longitude": 3.38333,
    "latitude": 49.6
  },
  {
    "departement": 2,
    "ville": "UGNY-LE-GAY",
    "longitude": 3.16667,
    "latitude": 49.6667
  },
  {
    "departement": 2,
    "ville": "HAPPENCOURT",
    "longitude": 3.18333,
    "latitude": 49.7833
  },
  {
    "departement": 2,
    "ville": "PROUVAIS",
    "longitude": 3.98333,
    "latitude": 49.4667
  },
  {
    "departement": 2,
    "ville": "AZY-SUR-MARNE",
    "longitude": 3.36667,
    "latitude": 49
  },
  {
    "departement": 2,
    "ville": "TERNY-SORNY",
    "longitude": 3.36667,
    "latitude": 49.45
  },
  {
    "departement": 2,
    "ville": "DROIZY",
    "longitude": 3.38333,
    "latitude": 49.2833
  },
  {
    "departement": 2,
    "ville": "PIGNICOURT",
    "longitude": 4.03333,
    "latitude": 49.4167
  },
  {
    "departement": 2,
    "ville": "MOUSSY-VERNEUIL",
    "longitude": 3.63333,
    "latitude": 49.4167
  },
  {
    "departement": 2,
    "ville": "AGUILCOURT",
    "longitude": 3.96667,
    "latitude": 49.4
  },
  {
    "departement": 2,
    "ville": "MONTAIGU",
    "longitude": 3.83333,
    "latitude": 49.5333
  },
  {
    "departement": 2,
    "ville": "MOULINS",
    "longitude": 3.68333,
    "latitude": 49.4167
  },
  {
    "departement": 2,
    "ville": "SAULCHERY",
    "longitude": 3.3,
    "latitude": 48.9833
  },
  {
    "departement": 2,
    "ville": "NANTEUIL-LA-FOSSE",
    "longitude": 3.45,
    "latitude": 49.4333
  },
  {
    "departement": 2,
    "ville": "GUIGNICOURT",
    "longitude": 3.96667,
    "latitude": 49.4333
  },
  {
    "departement": 2,
    "ville": "BUCY-LE-LONG",
    "longitude": 3.38333,
    "latitude": 49.4
  },
  {
    "departement": 2,
    "ville": "LONGPONT",
    "longitude": 3.21667,
    "latitude": 49.2667
  },
  {
    "departement": 2,
    "ville": "MONTGOBERT",
    "longitude": 3.15,
    "latitude": 49.3
  },
  {
    "departement": 2,
    "ville": "NOIRCOURT",
    "longitude": 4.1,
    "latitude": 49.6667
  },
  {
    "departement": 2,
    "ville": "ROZET-SAINT-ALBIN",
    "longitude": 3.3,
    "latitude": 49.2
  },
  {
    "departement": 2,
    "ville": "CHIVY-LES-ETOUVELLES",
    "longitude": 3.58333,
    "latitude": 49.5167
  },
  {
    "departement": 2,
    "ville": "CHAVONNE",
    "longitude": 3.56667,
    "latitude": 49.4
  },
  {
    "departement": 2,
    "ville": "ARTONGES",
    "longitude": 3.55,
    "latitude": 48.9333
  },
  {
    "departement": 2,
    "ville": "OISY",
    "longitude": 3.66667,
    "latitude": 50.0167
  },
  {
    "departement": 2,
    "ville": "JUVIGNY",
    "longitude": 3.31667,
    "latitude": 49.45
  },
  {
    "departement": 2,
    "ville": "MARCHAIS-EN-BRIE",
    "longitude": 3.48333,
    "latitude": 48.8833
  },
  {
    "departement": 2,
    "ville": "BOUCONville-VAUCLAIR",
    "longitude": 3.75556,
    "latitude": 49.4656
  },
  {
    "departement": 2,
    "ville": "LA BOUTEILLE",
    "longitude": 3.96667,
    "latitude": 49.8667
  },
  {
    "departement": 2,
    "ville": "LY-FONTAINE",
    "longitude": 3.3,
    "latitude": 49.7167
  },
  {
    "departement": 2,
    "ville": "LOGNY-LES-AUBENTON",
    "longitude": 4.2,
    "latitude": 49.8333
  },
  {
    "departement": 2,
    "ville": "CUIRIEUX",
    "longitude": 3.81667,
    "latitude": 49.6833
  },
  {
    "departement": 2,
    "ville": "IRON",
    "longitude": 3.66667,
    "latitude": 49.95
  },
  {
    "departement": 2,
    "ville": "JONCOURT",
    "longitude": 3.3,
    "latitude": 49.95
  },
  {
    "departement": 2,
    "ville": "EFFRY",
    "longitude": 4,
    "latitude": 49.9333
  },
  {
    "departement": 2,
    "ville": "JUMIGNY",
    "longitude": 3.71667,
    "latitude": 49.4167
  },
  {
    "departement": 2,
    "ville": "CHAOURSE",
    "longitude": 4,
    "latitude": 49.7
  },
  {
    "departement": 2,
    "ville": "SAINT-REMY-BLANZY",
    "longitude": 3.3,
    "latitude": 49.2333
  },
  {
    "departement": 2,
    "ville": "BEAUMONT-EN-BEINE",
    "longitude": 3.13333,
    "latitude": 49.7
  },
  {
    "departement": 2,
    "ville": "LE PLESSIER-HULEU",
    "longitude": 3.35,
    "latitude": 49.2333
  },
  {
    "departement": 2,
    "ville": "ESTREES",
    "longitude": 3.28333,
    "latitude": 49.9667
  },
  {
    "departement": 2,
    "ville": "BAULNE-EN-BRIE",
    "longitude": 3.61667,
    "latitude": 48.9833
  },
  {
    "departement": 2,
    "ville": "GUIVRY",
    "longitude": 3.11667,
    "latitude": 49.65
  },
  {
    "departement": 2,
    "ville": "VARISCOURT",
    "longitude": 3.98333,
    "latitude": 49.4167
  },
  {
    "departement": 2,
    "ville": "CHATILLON-SUR-OISE",
    "longitude": 3.4,
    "latitude": 49.7833
  },
  {
    "departement": 2,
    "ville": "SOISSONS",
    "longitude": 3.33333,
    "latitude": 49.3667
  },
  {
    "departement": 2,
    "ville": "BRAY-SAINT-CHRISTOPHE",
    "longitude": 3.15,
    "latitude": 49.7667
  },
  {
    "departement": 2,
    "ville": "LE HERIE-LA-VIEville",
    "longitude": 3.63333,
    "latitude": 49.8167
  },
  {
    "departement": 2,
    "ville": "AUBENTON",
    "longitude": 4.2,
    "latitude": 49.8333
  },
  {
    "departement": 2,
    "ville": "BRAYE",
    "longitude": 3.36667,
    "latitude": 49.4333
  },
  {
    "departement": 2,
    "ville": "BRISSAY-CHOIGNY",
    "longitude": 3.36667,
    "latitude": 49.7167
  },
  {
    "departement": 2,
    "ville": "REMAUCOURT",
    "longitude": 3.33333,
    "latitude": 49.9
  },
  {
    "departement": 2,
    "ville": "SERAUCOURT-LE-GRAND",
    "longitude": 3.21667,
    "latitude": 49.7833
  },
  {
    "departement": 2,
    "ville": "BERRY-AU-BAC",
    "longitude": 3.9,
    "latitude": 49.4
  },
  {
    "departement": 2,
    "ville": "VIVAISE",
    "longitude": 3.56667,
    "latitude": 49.6167
  },
  {
    "departement": 2,
    "ville": "PROVISEUX-ET-PLESNOY",
    "longitude": 4,
    "latitude": 49.4667
  },
  {
    "departement": 2,
    "ville": "CAUMONT",
    "longitude": 3.18333,
    "latitude": 49.6167
  },
  {
    "departement": 2,
    "ville": "villeRS-LE-SEC",
    "longitude": 3.5,
    "latitude": 49.7833
  },
  {
    "departement": 2,
    "ville": "VICHEL-NANTEUIL",
    "longitude": 3.28333,
    "latitude": 49.1833
  },
  {
    "departement": 2,
    "ville": "ROMERY",
    "longitude": 3.73333,
    "latitude": 49.9
  },
  {
    "departement": 2,
    "ville": "FONTAINE-LES-CLERCS",
    "longitude": 3.21667,
    "latitude": 49.8
  },
  {
    "departement": 2,
    "ville": "CHERY-LES-POUILLY",
    "longitude": 3.6,
    "latitude": 49.65
  },
  {
    "departement": 2,
    "ville": "PITHON",
    "longitude": 3.1,
    "latitude": 49.75
  },
  {
    "departement": 2,
    "ville": "BEAURIEUX",
    "longitude": 3.73333,
    "latitude": 49.4
  },
  {
    "departement": 2,
    "ville": "SINCENY",
    "longitude": 3.25,
    "latitude": 49.6
  },
  {
    "departement": 2,
    "ville": "BOUFFIGNEREUX",
    "longitude": 3.85,
    "latitude": 49.3667
  },
  {
    "departement": 2,
    "ville": "SAINT-GENGOULPH",
    "longitude": 3.21667,
    "latitude": 49.1167
  },
  {
    "departement": 2,
    "ville": "PARGNY-LES-BOIS",
    "longitude": 3.61667,
    "latitude": 49.7167
  },
  {
    "departement": 2,
    "ville": "MONTIGNY-L'ALLIER",
    "longitude": 3.1,
    "latitude": 49.1167
  },
  {
    "departement": 2,
    "ville": "BEUVARDES",
    "longitude": 3.48333,
    "latitude": 49.15
  },
  {
    "departement": 2,
    "ville": "CUISSY-ET-GENY",
    "longitude": 3.7,
    "latitude": 49.4167
  },
  {
    "departement": 2,
    "ville": "REUILLY-SAUVIGNY",
    "longitude": 3.55,
    "latitude": 49.0667
  },
  {
    "departement": 2,
    "ville": "VAILLY-SUR-AISNE",
    "longitude": 3.51667,
    "latitude": 49.4167
  },
  {
    "departement": 2,
    "ville": "BIEVRES",
    "longitude": 3.71667,
    "latitude": 49.5
  },
  {
    "departement": 2,
    "ville": "BERNY-RIVIERE",
    "longitude": 3.15,
    "latitude": 49.4167
  },
  {
    "departement": 2,
    "ville": "PERLES",
    "longitude": 3.65,
    "latitude": 49.3167
  },
  {
    "departement": 2,
    "ville": "FONTENELLE-EN-BRIE",
    "longitude": 3.48333,
    "latitude": 48.9167
  },
  {
    "departement": 2,
    "ville": "NEUFLIEUX",
    "longitude": 3.16667,
    "latitude": 49.6
  },
  {
    "departement": 2,
    "ville": "SAINTE-CROIX",
    "longitude": 3.78333,
    "latitude": 49.4833
  },
  {
    "departement": 2,
    "ville": "PARGNY-LA-DHUYS",
    "longitude": 3.55,
    "latitude": 48.95
  },
  {
    "departement": 2,
    "ville": "BRENELLE",
    "longitude": 3.53333,
    "latitude": 49.3667
  },
  {
    "departement": 2,
    "ville": "URvilleRS",
    "longitude": 3.31667,
    "latitude": 49.7833
  },
  {
    "departement": 2,
    "ville": "LAVERSINE",
    "longitude": 3.16667,
    "latitude": 49.35
  },
  {
    "departement": 2,
    "ville": "ORIGNY-SAINTE-BENOITE",
    "longitude": 3.5,
    "latitude": 49.8333
  },
  {
    "departement": 2,
    "ville": "CUIRY-HOUSSE",
    "longitude": 3.48333,
    "latitude": 49.3
  },
  {
    "departement": 2,
    "ville": "LA NEUville-LES-DORENGT",
    "longitude": 3.68333,
    "latitude": 49.9667
  },
  {
    "departement": 2,
    "ville": "BLANZY-LES-FISMES",
    "longitude": 3.66667,
    "latitude": 49.3333
  },
  {
    "departement": 2,
    "ville": "HARGICOURT",
    "longitude": 3.18,
    "latitude": 49.9623
  },
  {
    "departement": 2,
    "ville": "villeRS-SUR-FERE",
    "longitude": 3.53333,
    "latitude": 49.1833
  },
  {
    "departement": 2,
    "ville": "LA HERIE",
    "longitude": 4.05,
    "latitude": 49.8833
  },
  {
    "departement": 2,
    "ville": "BONNESVALYN",
    "longitude": 3.31667,
    "latitude": 49.1167
  },
  {
    "departement": 2,
    "ville": "HAUTION",
    "longitude": 3.83333,
    "latitude": 49.85
  },
  {
    "departement": 2,
    "ville": "BERZY-LE-SEC",
    "longitude": 3.31667,
    "latitude": 49.3333
  },
  {
    "departement": 2,
    "ville": "LA VALLEE-AU-BLE",
    "longitude": 3.78333,
    "latitude": 49.8667
  },
  {
    "departement": 2,
    "ville": "LE CATELET",
    "longitude": 3.25,
    "latitude": 50
  },
  {
    "departement": 2,
    "ville": "GIZY",
    "longitude": 3.76667,
    "latitude": 49.6
  },
  {
    "departement": 2,
    "ville": "SAINT-ALGIS",
    "longitude": 3.81667,
    "latitude": 49.8833
  },
  {
    "departement": 2,
    "ville": "SAINT-AUBIN",
    "longitude": 3.18333,
    "latitude": 49.5167
  },
  {
    "departement": 2,
    "ville": "BANCIGNY",
    "longitude": 4.01667,
    "latitude": 49.8
  },
  {
    "departement": 2,
    "ville": "villeNEUVE-SUR-FERE",
    "longitude": 3.46667,
    "latitude": 49.1833
  },
  {
    "departement": 2,
    "ville": "FLEURY",
    "longitude": 3.15639,
    "latitude": 49.2581
  },
  {
    "departement": 2,
    "ville": "QUINCY-SOUS-LE-MONT",
    "longitude": 3.55,
    "latitude": 49.3
  },
  {
    "departement": 2,
    "ville": "BESNY-ET-LOIZY",
    "longitude": 3.58333,
    "latitude": 49.6
  },
  {
    "departement": 2,
    "ville": "CHERY-LES-ROZOY",
    "longitude": 4.08333,
    "latitude": 49.7167
  },
  {
    "departement": 2,
    "ville": "CHAUNY",
    "longitude": 3.21667,
    "latitude": 49.6167
  },
  {
    "departement": 2,
    "ville": "SOMMETTE-EAUCOURT",
    "longitude": 3.11667,
    "latitude": 49.7333
  },
  {
    "departement": 2,
    "ville": "LIERVAL",
    "longitude": 3.61667,
    "latitude": 49.4833
  },
  {
    "departement": 2,
    "ville": "CHEZY-SUR-MARNE",
    "longitude": 3.36667,
    "latitude": 48.9833
  },
  {
    "departement": 2,
    "ville": "OULCHES-LA-VALLEE-FOULON",
    "longitude": 3.75,
    "latitude": 49.4333
  },
  {
    "departement": 2,
    "ville": "ANIZY-LE-CHATEAU",
    "longitude": 3.45,
    "latitude": 49.5
  },
  {
    "departement": 2,
    "ville": "MAIZY",
    "longitude": 3.73333,
    "latitude": 49.3833
  },
  {
    "departement": 2,
    "ville": "FOURDRAIN",
    "longitude": 3.46667,
    "latitude": 49.6
  },
  {
    "departement": 2,
    "ville": "NAMPTEUIL-SOUS-MURET",
    "longitude": 3.41667,
    "latitude": 49.3
  },
  {
    "departement": 2,
    "ville": "URCEL",
    "longitude": 3.55,
    "latitude": 49.5
  },
  {
    "departement": 2,
    "ville": "LOUATRE",
    "longitude": 3.25,
    "latitude": 49.25
  },
  {
    "departement": 2,
    "ville": "BARZY-EN-THIERACHE",
    "longitude": 3.75,
    "latitude": 50.0333
  },
  {
    "departement": 2,
    "ville": "CONDE-EN-BRIE",
    "longitude": 3.55,
    "latitude": 49
  },
  {
    "departement": 2,
    "ville": "DAMPLEUX",
    "longitude": 3.15,
    "latitude": 49.25
  },
  {
    "departement": 2,
    "ville": "SOMMELANS",
    "longitude": 3.3,
    "latitude": 49.1333
  },
  {
    "departement": 2,
    "ville": "PONTRUET",
    "longitude": 3.23333,
    "latitude": 49.9
  },
  {
    "departement": 2,
    "ville": "OIGNY-EN-VALOIS",
    "longitude": 3.13333,
    "latitude": 49.2167
  },
  {
    "departement": 2,
    "ville": "LOUPEIGNE",
    "longitude": 3.53333,
    "latitude": 49.25
  },
  {
    "departement": 2,
    "ville": "LHUYS",
    "longitude": 3.55,
    "latitude": 49.2833
  },
  {
    "departement": 2,
    "ville": "EPARCY",
    "longitude": 4.06667,
    "latitude": 49.8667
  },
  {
    "departement": 2,
    "ville": "LA CHAPELLE-MONTHODON",
    "longitude": 3.63333,
    "latitude": 49.0167
  },
  {
    "departement": 2,
    "ville": "MORSAIN",
    "longitude": 3.18333,
    "latitude": 49.45
  },
  {
    "departement": 2,
    "ville": "JAULGONNE",
    "longitude": 3.53333,
    "latitude": 49.0833
  },
  {
    "departement": 2,
    "ville": "CHERMIZY-AILLES",
    "longitude": 3.73333,
    "latitude": 49.4667
  },
  {
    "departement": 2,
    "ville": "BECQUIGNY",
    "longitude": 3.46973,
    "latitude": 50.0173
  },
  {
    "departement": 2,
    "ville": "FESTIEUX",
    "longitude": 3.75,
    "latitude": 49.5167
  },
  {
    "departement": 2,
    "ville": "villeRS-LES-GUISE",
    "longitude": 3.68333,
    "latitude": 49.9
  },
  {
    "departement": 2,
    "ville": "NAMPCELLES-LA-COUR",
    "longitude": 4,
    "latitude": 49.7833
  },
  {
    "departement": 2,
    "ville": "MONTIGNY-EN-ARROUAISE",
    "longitude": 3.48333,
    "latitude": 49.9
  },
  {
    "departement": 2,
    "ville": "BERRIEUX",
    "longitude": 3.85,
    "latitude": 49.4833
  },
  {
    "departement": 2,
    "ville": "CHIGNY",
    "longitude": 3.76667,
    "latitude": 49.9167
  },
  {
    "departement": 2,
    "ville": "MURET-ET-CROUTTES",
    "longitude": 3.41667,
    "latitude": 49.2833
  },
  {
    "departement": 2,
    "ville": "FLAVIGNY-LE-GRAND-ET-BEAURAIN",
    "longitude": 3.66473,
    "latitude": 49.8909
  },
  {
    "departement": 2,
    "ville": "LAON",
    "longitude": 3.61667,
    "latitude": 49.5667
  },
  {
    "departement": 2,
    "ville": "SAINT-CLEMENT",
    "longitude": 4.06667,
    "latitude": 49.7667
  },
  {
    "departement": 2,
    "ville": "DERCY",
    "longitude": 3.68333,
    "latitude": 49.7
  },
  {
    "departement": 2,
    "ville": "ANGUILCOURT-LE-SART",
    "longitude": 3.43333,
    "latitude": 49.6833
  },
  {
    "departement": 2,
    "ville": "villeRS-EN-PRAYERES",
    "longitude": 3.66667,
    "latitude": 49.3833
  },
  {
    "departement": 2,
    "ville": "CHALANDRY",
    "longitude": 3.63333,
    "latitude": 49.6833
  },
  {
    "departement": 2,
    "ville": "LAVAL-EN-LAONNOIS",
    "longitude": 3.6,
    "latitude": 49.5
  },
  {
    "departement": 2,
    "ville": "FRESSANCOURT",
    "longitude": 3.41667,
    "latitude": 49.6167
  },
  {
    "departement": 2,
    "ville": "LE SOURD",
    "longitude": 3.75,
    "latitude": 49.8667
  },
  {
    "departement": 2,
    "ville": "FONTAINE-NOTRE-DAME",
    "longitude": 3.43333,
    "latitude": 49.8833
  },
  {
    "departement": 2,
    "ville": "CHERY-CHARTREUVE",
    "longitude": 3.61667,
    "latitude": 49.2667
  },
  {
    "departement": 2,
    "ville": "MORTEFONTAINE",
    "longitude": 3.07611,
    "latitude": 49.3317
  },
  {
    "departement": 2,
    "ville": "SERAIN",
    "longitude": 3.36667,
    "latitude": 50.0167
  },
  {
    "departement": 2,
    "ville": "MAAST-ET-VIOLAINE",
    "longitude": 3.45,
    "latitude": 49.2833
  },
  {
    "departement": 2,
    "ville": "NEUville-SUR-AILETTE",
    "longitude": 3.7,
    "latitude": 49.4667
  },
  {
    "departement": 2,
    "ville": "FRANCILLY-SELENCY",
    "longitude": 3.23333,
    "latitude": 49.85
  },
  {
    "departement": 2,
    "ville": "BEZU-LE-GUERY",
    "longitude": 3.23333,
    "latitude": 49.0167
  },
  {
    "departement": 2,
    "ville": "MARLE",
    "longitude": 3.76667,
    "latitude": 49.7333
  },
  {
    "departement": 2,
    "ville": "LEME",
    "longitude": 3.76667,
    "latitude": 49.8333
  },
  {
    "departement": 2,
    "ville": "CIERGES",
    "longitude": 3.6,
    "latitude": 49.1667
  },
  {
    "departement": 2,
    "ville": "CRAONNE",
    "longitude": 3.78333,
    "latitude": 49.4333
  },
  {
    "departement": 2,
    "ville": "COURTEMONT-VARENNES",
    "longitude": 3.55,
    "latitude": 49.0667
  },
  {
    "departement": 2,
    "ville": "POMMIERS",
    "longitude": 3.26667,
    "latitude": 49.4
  },
  {
    "departement": 2,
    "ville": "GLAND",
    "longitude": 3.46667,
    "latitude": 49.05
  },
  {
    "departement": 2,
    "ville": "LANDOUZY-LA-COUR",
    "longitude": 3.98333,
    "latitude": 49.85
  },
  {
    "departement": 2,
    "ville": "MONTIGNY-LES-CONDE",
    "longitude": 3.56667,
    "latitude": 48.9833
  },
  {
    "departement": 2,
    "ville": "LEUILLY-SOUS-COUCY",
    "longitude": 3.33333,
    "latitude": 49.4833
  },
  {
    "departement": 2,
    "ville": "PLOISY",
    "longitude": 3.3,
    "latitude": 49.3333
  },
  {
    "departement": 2,
    "ville": "SERVAL",
    "longitude": 3.68333,
    "latitude": 49.35
  },
  {
    "departement": 2,
    "ville": "BILLY-SUR-OURCQ",
    "longitude": 3.3,
    "latitude": 49.2167
  },
  {
    "departement": 2,
    "ville": "AMBRIEF",
    "longitude": 3.4,
    "latitude": 49.3167
  },
  {
    "departement": 2,
    "ville": "PRISCES",
    "longitude": 3.86667,
    "latitude": 49.7833
  },
  {
    "departement": 2,
    "ville": "ROUPY",
    "longitude": 3.18333,
    "latitude": 49.8167
  },
  {
    "departement": 2,
    "ville": "RONCHERES",
    "longitude": 3.6,
    "latitude": 49.15
  },
  {
    "departement": 2,
    "ville": "LUGNY",
    "longitude": 3.81667,
    "latitude": 49.7833
  },
  {
    "departement": 2,
    "ville": "CHEZY-EN-ORXOIS",
    "longitude": 3.18333,
    "latitude": 49.1333
  },
  {
    "departement": 2,
    "ville": "DHUIZEL",
    "longitude": 3.61667,
    "latitude": 49.3667
  },
  {
    "departement": 2,
    "ville": "ETAMPES-SUR-MARNE",
    "longitude": 3.41667,
    "latitude": 49.0333
  },
  {
    "departement": 2,
    "ville": "VAUX-EN-VERMANDOIS",
    "longitude": 3.15,
    "latitude": 49.8167
  },
  {
    "departement": 2,
    "ville": "BOUE",
    "longitude": 3.7,
    "latitude": 50.0167
  },
  {
    "departement": 2,
    "ville": "LA FERE",
    "longitude": 3.36667,
    "latitude": 49.6667
  },
  {
    "departement": 2,
    "ville": "SAINT-MICHEL",
    "longitude": 4.13333,
    "latitude": 49.9167
  },
  {
    "departement": 2,
    "ville": "CASTRES",
    "longitude": 3.23333,
    "latitude": 49.8
  },
  {
    "departement": 2,
    "ville": "MESBRECOURT-RICHECOURT",
    "longitude": 3.55,
    "latitude": 49.7
  },
  {
    "departement": 2,
    "ville": "BEUGNEUX",
    "longitude": 3.41667,
    "latitude": 49.2333
  },
  {
    "departement": 2,
    "ville": "CLERMONT-LES-FERMES",
    "longitude": 3.95,
    "latitude": 49.6667
  },
  {
    "departement": 2,
    "ville": "CONDREN",
    "longitude": 3.28333,
    "latitude": 49.6167
  },
  {
    "departement": 2,
    "ville": "FRANQUEville",
    "longitude": 3.80945,
    "latitude": 49.81
  },
  {
    "departement": 2,
    "ville": "ARCY-SAINTE-RESTITUE",
    "longitude": 3.46667,
    "latitude": 49.25
  },
  {
    "departement": 2,
    "ville": "BURELLES",
    "longitude": 3.9,
    "latitude": 49.7833
  },
  {
    "departement": 2,
    "ville": "ROCOURT-SAINT-MARTIN",
    "longitude": 3.38333,
    "latitude": 49.15
  },
  {
    "departement": 2,
    "ville": "COMMENCHON",
    "longitude": 3.16667,
    "latitude": 49.6333
  },
  {
    "departement": 2,
    "ville": "VOULPAIX",
    "longitude": 3.83333,
    "latitude": 49.8333
  },
  {
    "departement": 2,
    "ville": "BUCY-LES-CERNY",
    "longitude": 3.51667,
    "latitude": 49.5833
  },
  {
    "departement": 2,
    "ville": "RENANSART",
    "longitude": 3.45,
    "latitude": 49.7167
  },
  {
    "departement": 2,
    "ville": "PRESLES-ET-BOVES",
    "longitude": 3.55,
    "latitude": 49.4
  },
  {
    "departement": 2,
    "ville": "LAVAQUERESSE",
    "longitude": 3.70833,
    "latitude": 49.95
  },
  {
    "departement": 2,
    "ville": "CUFFIES",
    "longitude": 3.31667,
    "latitude": 49.4167
  },
  {
    "departement": 2,
    "ville": "villeQUIER-AUMONT",
    "longitude": 3.2,
    "latitude": 49.65
  },
  {
    "departement": 2,
    "ville": "VENDELLES",
    "longitude": 3.13333,
    "latitude": 49.9167
  },
  {
    "departement": 2,
    "ville": "ATTILLY",
    "longitude": 3.16667,
    "latitude": 49.85
  },
  {
    "departement": 2,
    "ville": "BERLANCOURT",
    "longitude": 3.75806,
    "latitude": 49.7787
  },
  {
    "departement": 2,
    "ville": "GRISOLLES",
    "longitude": 3.35,
    "latitude": 49.15
  },
  {
    "departement": 2,
    "ville": "COURCELLES-SUR-VESLE",
    "longitude": 3.57195,
    "latitude": 49.3381
  },
  {
    "departement": 2,
    "ville": "SONS-ET-RONCHERES",
    "longitude": 3.66667,
    "latitude": 49.75
  },
  {
    "departement": 2,
    "ville": "SERINGES-ET-NESLES",
    "longitude": 3.53333,
    "latitude": 49.2
  },
  {
    "departement": 2,
    "ville": "GRANDLUP-ET-FAY",
    "longitude": 3.73333,
    "latitude": 49.6667
  },
  {
    "departement": 2,
    "ville": "COINCY",
    "longitude": 3.41667,
    "latitude": 49.1667
  },
  {
    "departement": 2,
    "ville": "MARLY-GOMONT",
    "longitude": 3.8,
    "latitude": 49.9
  },
  {
    "departement": 2,
    "ville": "MACOGNY",
    "longitude": 3.23333,
    "latitude": 49.1667
  },
  {
    "departement": 2,
    "ville": "TARTIERS",
    "longitude": 3.23333,
    "latitude": 49.4333
  },
  {
    "departement": 2,
    "ville": "GIBERCOURT",
    "longitude": 3.28333,
    "latitude": 49.7333
  },
  {
    "departement": 2,
    "ville": "PONTRU",
    "longitude": 3.21667,
    "latitude": 49.9
  },
  {
    "departement": 2,
    "ville": "TRELOU-SUR-MARNE",
    "longitude": 3.60695,
    "latitude": 49.077
  },
  {
    "departement": 2,
    "ville": "LA ville-AUX-BOIS-LES-DIZY",
    "longitude": 3.99334,
    "latitude": 49.6612
  },
  {
    "departement": 2,
    "ville": "AMIGNY-ROUY",
    "longitude": 3.3,
    "latitude": 49.6
  },
  {
    "departement": 2,
    "ville": "CHARMES",
    "longitude": 3.38333,
    "latitude": 49.65
  },
  {
    "departement": 2,
    "ville": "VIFFORT",
    "longitude": 3.45,
    "latitude": 48.9667
  },
  {
    "departement": 2,
    "ville": "MACHECOURT",
    "longitude": 3.84167,
    "latitude": 49.6583
  },
  {
    "departement": 2,
    "ville": "NOGENT-L'ARTAUD",
    "longitude": 3.31667,
    "latitude": 48.9667
  },
  {
    "departement": 2,
    "ville": "TANNIERES",
    "longitude": 3.55,
    "latitude": 49.2833
  },
  {
    "departement": 2,
    "ville": "SAINT-ERME-OUTRE-ET-RAMECOURT",
    "longitude": 3.85,
    "latitude": 49.5167
  },
  {
    "departement": 2,
    "ville": "JOUAIGNES",
    "longitude": 3.5,
    "latitude": 49.3
  },
  {
    "departement": 2,
    "ville": "VAUCELLES-ET-BEFFECOURT",
    "longitude": 3.55,
    "latitude": 49.5333
  },
  {
    "departement": 2,
    "ville": "LESQUIELLES-SAINT-GERMAIN",
    "longitude": 3.61667,
    "latitude": 49.9333
  },
  {
    "departement": 2,
    "ville": "AIZY-JOUY",
    "longitude": 3.51639,
    "latitude": 49.4348
  },
  {
    "departement": 2,
    "ville": "FAUCOUCOURT",
    "longitude": 3.46667,
    "latitude": 49.5333
  },
  {
    "departement": 2,
    "ville": "CHAVIGNY",
    "longitude": 3.3,
    "latitude": 49.4333
  },
  {
    "departement": 2,
    "ville": "VEUILLY-LA-POTERIE",
    "longitude": 3.21667,
    "latitude": 49.0833
  },
  {
    "departement": 2,
    "ville": "MEZY-MOULINS",
    "longitude": 3.5,
    "latitude": 49.0667
  },
  {
    "departement": 2,
    "ville": "GERNICOURT",
    "longitude": 3.86667,
    "latitude": 49.4
  },
  {
    "departement": 2,
    "ville": "QUINCY-BASSE",
    "longitude": 3.38333,
    "latitude": 49.5167
  },
  {
    "departement": 2,
    "ville": "SERGY",
    "longitude": 3.56667,
    "latitude": 49.1833
  },
  {
    "departement": 2,
    "ville": "TOULIS-ET-ATTENCOURT",
    "longitude": 3.73333,
    "latitude": 49.6833
  },
  {
    "departement": 2,
    "ville": "PUISEUX-EN-RETZ",
    "longitude": 3.13333,
    "latitude": 49.3
  },
  {
    "departement": 2,
    "ville": "LEUZE",
    "longitude": 4.15,
    "latitude": 49.85
  },
  {
    "departement": 2,
    "ville": "CREZANCY",
    "longitude": 3.5,
    "latitude": 49.05
  },
  {
    "departement": 2,
    "ville": "NOYALES",
    "longitude": 3.55,
    "latitude": 49.9
  },
  {
    "departement": 2,
    "ville": "MARIGNY-EN-ORXOIS",
    "longitude": 3.21667,
    "latitude": 49.0667
  },
  {
    "departement": 2,
    "ville": "FORESTE",
    "longitude": 3.1,
    "latitude": 49.8167
  },
  {
    "departement": 2,
    "ville": "WISSIGNICOURT",
    "longitude": 3.43333,
    "latitude": 49.5333
  },
  {
    "departement": 2,
    "ville": "TAVAUX-ET-PONTSERICOURT",
    "longitude": 3.91667,
    "latitude": 49.7333
  },
  {
    "departement": 2,
    "ville": "SAPONAY",
    "longitude": 3.48333,
    "latitude": 49.2167
  },
  {
    "departement": 2,
    "ville": "EBOULEAU",
    "longitude": 3.86667,
    "latitude": 49.6667
  },
  {
    "departement": 2,
    "ville": "ORAINville",
    "longitude": 4.01667,
    "latitude": 49.3833
  },
  {
    "departement": 2,
    "ville": "MISSY-LES-PIERREPONT",
    "longitude": 3.8,
    "latitude": 49.6333
  },
  {
    "departement": 2,
    "ville": "NEUILLY-SAINT-FRONT",
    "longitude": 3.26667,
    "latitude": 49.1667
  },
  {
    "departement": 2,
    "ville": "TERGNIER",
    "longitude": 3.3,
    "latitude": 49.65
  },
  {
    "departement": 2,
    "ville": "LA FERTE-MILON",
    "longitude": 3.11667,
    "latitude": 49.1667
  },
  {
    "departement": 2,
    "ville": "BASSOLES-AULERS",
    "longitude": 3.38333,
    "latitude": 49.5333
  },
  {
    "departement": 2,
    "ville": "LE VERGUIER",
    "longitude": 3.16667,
    "latitude": 49.9333
  },
  {
    "departement": 2,
    "ville": "OSTEL",
    "longitude": 3.56667,
    "latitude": 49.4333
  },
  {
    "departement": 2,
    "ville": "SISSY",
    "longitude": 3.43333,
    "latitude": 49.8
  },
  {
    "departement": 2,
    "ville": "LEURY",
    "longitude": 3.33333,
    "latitude": 49.4333
  },
  {
    "departement": 2,
    "ville": "LA CROIX-SUR-OURCQ",
    "longitude": 3.35,
    "latitude": 49.1667
  },
  {
    "departement": 2,
    "ville": "PERNANT",
    "longitude": 3.23333,
    "latitude": 49.3833
  },
  {
    "departement": 2,
    "ville": "ETREUX",
    "longitude": 3.65,
    "latitude": 49.9833
  },
  {
    "departement": 2,
    "ville": "BRUYS",
    "longitude": 3.56667,
    "latitude": 49.2667
  },
  {
    "departement": 2,
    "ville": "FONTENELLE",
    "longitude": 3.86667,
    "latitude": 50.0333
  },
  {
    "departement": 2,
    "ville": "CERSEUIL",
    "longitude": 3.51667,
    "latitude": 49.3333
  },
  {
    "departement": 2,
    "ville": "VOHARIES",
    "longitude": 3.8,
    "latitude": 49.7833
  },
  {
    "departement": 2,
    "ville": "SAINT-PIERRE-AIGLE",
    "longitude": 3.18333,
    "latitude": 49.3167
  },
  {
    "departement": 2,
    "ville": "SAINT-MARTIN-RIVIERE",
    "longitude": 3.53333,
    "latitude": 50.05
  },
  {
    "departement": 2,
    "ville": "NANTEUIL-NOTRE-DAME",
    "longitude": 3.4,
    "latitude": 49.2
  },
  {
    "departement": 2,
    "ville": "SELENS",
    "longitude": 3.2,
    "latitude": 49.5
  },
  {
    "departement": 2,
    "ville": "MONTHENAULT",
    "longitude": 3.66667,
    "latitude": 49.4833
  },
  {
    "departement": 2,
    "ville": "SAINT-EUGENE",
    "longitude": 3.53333,
    "latitude": 49.0167
  },
  {
    "departement": 2,
    "ville": "ETOUVELLES",
    "longitude": 3.58333,
    "latitude": 49.5333
  },
  {
    "departement": 2,
    "ville": "FAVEROLLES",
    "longitude": 3.17639,
    "latitude": 49.2242
  },
  {
    "departement": 2,
    "ville": "LISLET",
    "longitude": 4.01667,
    "latitude": 49.6833
  },
  {
    "departement": 2,
    "ville": "VENDEUIL",
    "longitude": 3.35,
    "latitude": 49.7167
  },
  {
    "departement": 2,
    "ville": "FOLEMBRAY",
    "longitude": 3.28333,
    "latitude": 49.55
  },
  {
    "departement": 2,
    "ville": "COURBES",
    "longitude": 3.45,
    "latitude": 49.6833
  },
  {
    "departement": 2,
    "ville": "CHACRISE",
    "longitude": 3.4,
    "latitude": 49.3
  },
  {
    "departement": 2,
    "ville": "SERCHES",
    "longitude": 3.45,
    "latitude": 49.35
  },
  {
    "departement": 2,
    "ville": "ACY",
    "longitude": 3.41667,
    "latitude": 49.35
  },
  {
    "departement": 2,
    "ville": "VERNEUIL-SOUS-COUCY",
    "longitude": 3.31667,
    "latitude": 49.5333
  },
  {
    "departement": 2,
    "ville": "BAZOCHES-SUR-VESLES",
    "longitude": 3.61861,
    "latitude": 49.3073
  },
  {
    "departement": 2,
    "ville": "MAUREGNY-EN-HAYE",
    "longitude": 3.8,
    "latitude": 49.5333
  },
  {
    "departement": 2,
    "ville": "HARTENNES-ET-TAUX",
    "longitude": 3.35,
    "latitude": 49.2667
  },
  {
    "departement": 2,
    "ville": "VASSENY",
    "longitude": 3.48333,
    "latitude": 49.35
  },
  {
    "departement": 2,
    "ville": "MERVAL",
    "longitude": 3.7,
    "latitude": 49.35
  },
  {
    "departement": 2,
    "ville": "CORCY",
    "longitude": 3.21667,
    "latitude": 49.25
  },
  {
    "departement": 2,
    "ville": "BONY",
    "longitude": 3.21667,
    "latitude": 49.9833
  },
  {
    "departement": 2,
    "ville": "BRENY",
    "longitude": 3.35,
    "latitude": 49.1833
  },
  {
    "departement": 2,
    "ville": "BRECY",
    "longitude": 3.43333,
    "latitude": 49.15
  },
  {
    "departement": 2,
    "ville": "BRUYERES-SUR-FERE",
    "longitude": 3.43333,
    "latitude": 49.1833
  },
  {
    "departement": 2,
    "ville": "FLAVY-LE-MARTEL",
    "longitude": 3.2,
    "latitude": 49.7167
  },
  {
    "departement": 2,
    "ville": "PANCY-COURTECON",
    "longitude": 3.65,
    "latitude": 49.4667
  },
  {
    "departement": 2,
    "ville": "BOSMONT-SUR-SERRE",
    "longitude": 3.86667,
    "latitude": 49.7333
  },
  {
    "departement": 2,
    "ville": "MISSY-AUX-BOIS",
    "longitude": 3.25,
    "latitude": 49.3333
  },
  {
    "departement": 2,
    "ville": "SURFONTAINE",
    "longitude": 3.45,
    "latitude": 49.7333
  },
  {
    "departement": 2,
    "ville": "DAGNY-LAMBERCY",
    "longitude": 4.03333,
    "latitude": 49.7667
  },
  {
    "departement": 2,
    "ville": "LANCHY",
    "longitude": 3.08333,
    "latitude": 49.8333
  },
  {
    "departement": 2,
    "ville": "VAUDESSON",
    "longitude": 3.48333,
    "latitude": 49.4667
  },
  {
    "departement": 2,
    "ville": "COEUVRES-ET-VALSERY",
    "longitude": 3.15,
    "latitude": 49.3333
  },
  {
    "departement": 2,
    "ville": "EPIEDS",
    "longitude": 3.45,
    "latitude": 49.1
  },
  {
    "departement": 2,
    "ville": "villeNEUVE-SAINT-GERMAIN",
    "longitude": 3.35,
    "latitude": 49.3833
  },
  {
    "departement": 2,
    "ville": "ALAINCOURT",
    "longitude": 3.36667,
    "latitude": 49.75
  },
  {
    "departement": 2,
    "ville": "SOUCY",
    "longitude": 3.13333,
    "latitude": 49.3167
  },
  {
    "departement": 2,
    "ville": "ARCHON",
    "longitude": 4.11667,
    "latitude": 49.7417
  },
  {
    "departement": 2,
    "ville": "PARGNY-FILAIN",
    "longitude": 3.53333,
    "latitude": 49.4667
  },
  {
    "departement": 2,
    "ville": "GERMAINE",
    "longitude": 3.11667,
    "latitude": 49.7833
  },
  {
    "departement": 2,
    "ville": "LA NEUville-HOUSSET",
    "longitude": 3.71667,
    "latitude": 49.7833
  },
  {
    "departement": 2,
    "ville": "BELLEAU",
    "longitude": 3.3,
    "latitude": 49.1
  },
  {
    "departement": 2,
    "ville": "PAARS",
    "longitude": 3.6,
    "latitude": 49.3333
  },
  {
    "departement": 2,
    "ville": "LANISCOURT",
    "longitude": 3.55,
    "latitude": 49.55
  },
  {
    "departement": 2,
    "ville": "SERMOISE",
    "longitude": 3.45,
    "latitude": 49.3667
  },
  {
    "departement": 2,
    "ville": "BARENTON-BUGNY",
    "longitude": 3.65,
    "latitude": 49.6333
  },
  {
    "departement": 2,
    "ville": "QUIERZY",
    "longitude": 3.13333,
    "latitude": 49.5667
  },
  {
    "departement": 2,
    "ville": "CERIZY",
    "longitude": 3.33333,
    "latitude": 49.75
  },
  {
    "departement": 2,
    "ville": "LA FERTE-CHEVRESIS",
    "longitude": 3.56667,
    "latitude": 49.7333
  },
  {
    "departement": 2,
    "ville": "RAMICOURT",
    "longitude": 3.33333,
    "latitude": 49.95
  },
  {
    "departement": 2,
    "ville": "BUSSIARES",
    "longitude": 3.25,
    "latitude": 49.0833
  },
  {
    "departement": 2,
    "ville": "BERNOT",
    "longitude": 3.5,
    "latitude": 49.8667
  },
  {
    "departement": 2,
    "ville": "LERZY",
    "longitude": 3.86667,
    "latitude": 49.9333
  },
  {
    "departement": 2,
    "ville": "SAMOUSSY",
    "longitude": 3.73333,
    "latitude": 49.5833
  },
  {
    "departement": 2,
    "ville": "GROUGIS",
    "longitude": 3.53333,
    "latitude": 49.9333
  },
  {
    "departement": 2,
    "ville": "MACQUIGNY",
    "longitude": 3.55,
    "latitude": 49.8833
  },
  {
    "departement": 2,
    "ville": "LA FLAMENGRIE",
    "longitude": 3.91667,
    "latitude": 50
  },
  {
    "departement": 2,
    "ville": "SERVAIS",
    "longitude": 3.35,
    "latitude": 49.6167
  },
  {
    "departement": 2,
    "ville": "BERTRICOURT",
    "longitude": 4,
    "latitude": 49.3833
  },
  {
    "departement": 2,
    "ville": "OSLY-COURTIL",
    "longitude": 3.21667,
    "latitude": 49.4
  },
  {
    "departement": 2,
    "ville": "VERNEUIL-SUR-SERRE",
    "longitude": 3.66667,
    "latitude": 49.65
  },
  {
    "departement": 2,
    "ville": "MAYOT",
    "longitude": 3.38333,
    "latitude": 49.7
  },
  {
    "departement": 2,
    "ville": "WASSIGNY",
    "longitude": 3.6,
    "latitude": 50.0167
  },
  {
    "departement": 2,
    "ville": "BARENTON-CEL",
    "longitude": 3.63333,
    "latitude": 49.65
  },
  {
    "departement": 2,
    "ville": "ENGLANCOURT",
    "longitude": 3.8,
    "latitude": 49.9167
  },
  {
    "departement": 2,
    "ville": "ATHIES-SOUS-LAON",
    "longitude": 3.68333,
    "latitude": 49.5667
  },
  {
    "departement": 2,
    "ville": "FROIDESTREES",
    "longitude": 3.9,
    "latitude": 49.9333
  },
  {
    "departement": 2,
    "ville": "LA MALMAISON",
    "longitude": 3.98333,
    "latitude": 49.5167
  },
  {
    "departement": 2,
    "ville": "MANICAMP",
    "longitude": 3.16667,
    "latitude": 49.5667
  },
  {
    "departement": 2,
    "ville": "BARENTON-SUR-SERRE",
    "longitude": 3.68333,
    "latitude": 49.6667
  },
  {
    "departement": 2,
    "ville": "AUDIGNY",
    "longitude": 3.65,
    "latitude": 49.85
  },
  {
    "departement": 2,
    "ville": "OHIS",
    "longitude": 4.01667,
    "latitude": 49.9333
  },
  {
    "departement": 2,
    "ville": "MARTIGNY",
    "longitude": 4.13333,
    "latitude": 49.8667
  },
  {
    "departement": 2,
    "ville": "BARISIS",
    "longitude": 3.32806,
    "latitude": 49.5787
  },
  {
    "departement": 2,
    "ville": "EPAUX-BEZU",
    "longitude": 3.35,
    "latitude": 49.1
  },
  {
    "departement": 2,
    "ville": "ABBECOURT",
    "longitude": 3.18333,
    "latitude": 49.6
  },
  {
    "departement": 2,
    "ville": "HAUTEville",
    "longitude": 3.51667,
    "latitude": 49.8667
  },
  {
    "departement": 2,
    "ville": "BENAY",
    "longitude": 3.31667,
    "latitude": 49.75
  },
  {
    "departement": 2,
    "ville": "LA NEUville-EN-BEINE",
    "longitude": 3.15,
    "latitude": 49.6833
  },
  {
    "departement": 2,
    "ville": "TUPIGNY",
    "longitude": 3.6,
    "latitude": 49.95
  },
  {
    "departement": 2,
    "ville": "VERVINS",
    "longitude": 3.9,
    "latitude": 49.8333
  },
  {
    "departement": 2,
    "ville": "DORENGT",
    "longitude": 3.68333,
    "latitude": 49.9667
  },
  {
    "departement": 2,
    "ville": "SAINT-GOBERT",
    "longitude": 3.81667,
    "latitude": 49.8
  },
  {
    "departement": 2,
    "ville": "PARCY-ET-TIGNY",
    "longitude": 3.335,
    "latitude": 49.2787
  },
  {
    "departement": 2,
    "ville": "SAINT-PIERRE-LES-FRANQUEville",
    "longitude": 3.82361,
    "latitude": 49.8195
  },
  {
    "departement": 2,
    "ville": "MONT-NOTRE-DAME",
    "longitude": 3.58333,
    "latitude": 49.3
  },
  {
    "departement": 2,
    "ville": "MONT-SAINT-MARTIN",
    "longitude": 3.63333,
    "latitude": 49.2833
  },
  {
    "departement": 2,
    "ville": "CHIERRY",
    "longitude": 3.43333,
    "latitude": 49.0333
  },
  {
    "departement": 2,
    "ville": "CUTRY",
    "longitude": 3.18333,
    "latitude": 49.35
  },
  {
    "departement": 2,
    "ville": "CHEVENNES",
    "longitude": 3.73333,
    "latitude": 49.8167
  },
  {
    "departement": 2,
    "ville": "MONTIGNY-LE-FRANC",
    "longitude": 3.91667,
    "latitude": 49.6833
  },
  {
    "departement": 2,
    "ville": "BOURG-ET-COMIN",
    "longitude": 3.65,
    "latitude": 49.4
  },
  {
    "departement": 2,
    "ville": "SAINT-AGNAN",
    "longitude": 3.6,
    "latitude": 49.0167
  },
  {
    "departement": 2,
    "ville": "COULONGES-COHAN",
    "longitude": 3.63639,
    "latitude": 49.2012
  },
  {
    "departement": 2,
    "ville": "PREMONTRE",
    "longitude": 3.4,
    "latitude": 49.55
  },
  {
    "departement": 2,
    "ville": "COURTRIZY-ET-FUSSIGNY",
    "longitude": 3.8,
    "latitude": 49.5167
  },
  {
    "departement": 2,
    "ville": "JUMENCOURT",
    "longitude": 3.35,
    "latitude": 49.5167
  },
  {
    "departement": 2,
    "ville": "CLAIRFONTAINE",
    "longitude": 3.98333,
    "latitude": 49.9833
  },
  {
    "departement": 2,
    "ville": "SEQUEHART",
    "longitude": 3.33333,
    "latitude": 49.9167
  },
  {
    "departement": 2,
    "ville": "AGNICOURT-ET-SECHELLES",
    "longitude": 3.95,
    "latitude": 49.7167
  },
  {
    "departement": 2,
    "ville": "ROUCY",
    "longitude": 3.81667,
    "latitude": 49.3667
  },
  {
    "departement": 2,
    "ville": "PREMONT",
    "longitude": 3.38333,
    "latitude": 50
  },
  {
    "departement": 2,
    "ville": "CLASTRES",
    "longitude": 3.23333,
    "latitude": 49.7333
  },
  {
    "departement": 2,
    "ville": "LE CHARMEL",
    "longitude": 3.55,
    "latitude": 49.1167
  },
  {
    "departement": 2,
    "ville": "ALLEMANT",
    "longitude": 3.45,
    "latitude": 49.4667
  },
  {
    "departement": 2,
    "ville": "MONT-SAINT-PERE",
    "longitude": 3.48333,
    "latitude": 49.0667
  },
  {
    "departement": 2,
    "ville": "PARFONDEVAL",
    "longitude": 4.16667,
    "latitude": 49.7333
  },
  {
    "departement": 2,
    "ville": "CHIVRES-VAL",
    "longitude": 3.43333,
    "latitude": 49.4
  },
  {
    "departement": 2,
    "ville": "AUBENCHEUL-AUX-BOIS",
    "longitude": 3.26667,
    "latitude": 50.0333
  },
  {
    "departement": 2,
    "ville": "MONTFAUCON",
    "longitude": 3.45,
    "latitude": 48.95
  },
  {
    "departement": 2,
    "ville": "LES AUTELS",
    "longitude": 4.2257,
    "latitude": 49.7667
  },
  {
    "departement": 2,
    "ville": "FONTENOY",
    "longitude": 3.2,
    "latitude": 49.4167
  },
  {
    "departement": 2,
    "ville": "CRECY-AU-MONT",
    "longitude": 3.31667,
    "latitude": 49.4833
  },
  {
    "departement": 2,
    "ville": "MORCOURT",
    "longitude": 3.31667,
    "latitude": 49.8667
  },
  {
    "departement": 2,
    "ville": "NEUville-SUR-MARGIVAL",
    "longitude": 3.4,
    "latitude": 49.45
  },
  {
    "departement": 2,
    "ville": "CYS-LA-COMMUNE",
    "longitude": 3.56667,
    "latitude": 49.4
  },
  {
    "departement": 2,
    "ville": "MARIZY-SAINT-MARD",
    "longitude": 3.21667,
    "latitude": 49.1833
  },
  {
    "departement": 2,
    "ville": "villeRET",
    "longitude": 3.18333,
    "latitude": 49.95
  },
  {
    "departement": 2,
    "ville": "AMIFONTAINE",
    "longitude": 3.91667,
    "latitude": 49.4833
  },
  {
    "departement": 2,
    "ville": "FONTAINE-UTERTE",
    "longitude": 3.36667,
    "latitude": 49.9167
  },
  {
    "departement": 2,
    "ville": "DOLIGNON",
    "longitude": 4.08333,
    "latitude": 49.7167
  },
  {
    "departement": 2,
    "ville": "ETAVES-ET-BOCQUIAUX",
    "longitude": 3.45,
    "latitude": 49.9333
  },
  {
    "departement": 2,
    "ville": "ROCQUIGNY",
    "longitude": 3.98333,
    "latitude": 50.0333
  },
  {
    "departement": 2,
    "ville": "MORTIERS",
    "longitude": 3.66667,
    "latitude": 49.6833
  },
  {
    "departement": 2,
    "ville": "ROZOY-SUR-SERRE",
    "longitude": 4.13333,
    "latitude": 49.7167
  },
  {
    "departement": 2,
    "ville": "MALZY",
    "longitude": 3.73333,
    "latitude": 49.9
  },
  {
    "departement": 2,
    "ville": "BELLENGLISE",
    "longitude": 3.25,
    "latitude": 49.9167
  },
  {
    "departement": 2,
    "ville": "CERNY-EN-LAONNOIS",
    "longitude": 3.66667,
    "latitude": 49.45
  },
  {
    "departement": 2,
    "ville": "MONTLOUE",
    "longitude": 4.06667,
    "latitude": 49.6667
  },
  {
    "departement": 2,
    "ville": "SAINTE-GENEVIEVE",
    "longitude": 4.07139,
    "latitude": 49.7195
  },
  {
    "departement": 2,
    "ville": "NEUVE-MAISON",
    "longitude": 4.03333,
    "latitude": 49.9333
  },
  {
    "departement": 2,
    "ville": "BEZU-SAINT-GERMAIN",
    "longitude": 3.4,
    "latitude": 49.1
  },
  {
    "departement": 2,
    "ville": "ETREAUPONT",
    "longitude": 3.91667,
    "latitude": 49.9
  },
  {
    "departement": 2,
    "ville": "BERTHENICOURT",
    "longitude": 3.38333,
    "latitude": 49.7667
  },
  {
    "departement": 2,
    "ville": "THIERNU",
    "longitude": 3.8,
    "latitude": 49.75
  },
  {
    "departement": 2,
    "ville": "LAIGNY",
    "longitude": 3.86667,
    "latitude": 49.85
  },
  {
    "departement": 2,
    "ville": "AISONville-ET-BERNOville",
    "longitude": 3.53333,
    "latitude": 49.9333
  },
  {
    "departement": 2,
    "ville": "CROUY",
    "longitude": 3.36667,
    "latitude": 49.4
  },
  {
    "departement": 2,
    "ville": "HIRSON",
    "longitude": 4.08333,
    "latitude": 49.9167
  },
  {
    "departement": 2,
    "ville": "BAGNEUX",
    "longitude": 3.28333,
    "latitude": 49.4667
  },
  {
    "departement": 2,
    "ville": "AUTREMENCOURT",
    "longitude": 3.8,
    "latitude": 49.7
  },
  {
    "departement": 2,
    "ville": "LA CELLE-SOUS-MONTMIRAIL",
    "longitude": 3.46611,
    "latitude": 48.8648
  },
  {
    "departement": 2,
    "ville": "CONDE-SUR-AISNE",
    "longitude": 3.45,
    "latitude": 49.4
  },
  {
    "departement": 2,
    "ville": "BLERANCOURT",
    "longitude": 3.15,
    "latitude": 49.5167
  },
  {
    "departement": 2,
    "ville": "MONTHUREL",
    "longitude": 3.55,
    "latitude": 49.0167
  },
  {
    "departement": 2,
    "ville": "PETIT-VERLY",
    "longitude": 3.55,
    "latitude": 49.9667
  },
  {
    "departement": 2,
    "ville": "SOIZE",
    "longitude": 4.08333,
    "latitude": 49.7
  },
  {
    "departement": 2,
    "ville": "SACONIN-ET-BREUIL",
    "longitude": 3.25,
    "latitude": 49.3667
  },
  {
    "departement": 2,
    "ville": "LARGNY-SUR-AUTOMNE",
    "longitude": 3.05,
    "latitude": 49.2667
  },
  {
    "departement": 2,
    "ville": "SOMMERON",
    "longitude": 3.95,
    "latitude": 49.95
  },
  {
    "departement": 2,
    "ville": "VESLUD",
    "longitude": 3.73333,
    "latitude": 49.5333
  },
  {
    "departement": 2,
    "ville": "LIESSE-NOTRE-DAME",
    "longitude": 3.80445,
    "latitude": 49.6095
  },
  {
    "departement": 2,
    "ville": "CHAUDUN",
    "longitude": 3.26667,
    "latitude": 49.3167
  },
  {
    "departement": 2,
    "ville": "VUILLERY",
    "longitude": 3.38333,
    "latitude": 49.4333
  },
  {
    "departement": 2,
    "ville": "OMISSY",
    "longitude": 3.31667,
    "latitude": 49.8833
  },
  {
    "departement": 2,
    "ville": "PAVANT",
    "longitude": 3.28333,
    "latitude": 48.95
  },
  {
    "departement": 2,
    "ville": "MISSY-SUR-AISNE",
    "longitude": 3.43333,
    "latitude": 49.3833
  },
  {
    "departement": 2,
    "ville": "CUGNY",
    "longitude": 3.15,
    "latitude": 49.7
  },
  {
    "departement": 2,
    "ville": "PARFONDRU",
    "longitude": 3.71667,
    "latitude": 49.5333
  },
  {
    "departement": 2,
    "ville": "COINGT",
    "longitude": 4.08333,
    "latitude": 49.7833
  },
  {
    "departement": 2,
    "ville": "FONSOMME",
    "longitude": 3.4,
    "latitude": 49.9
  },
  {
    "departement": 2,
    "ville": "DURY",
    "longitude": 3.12889,
    "latitude": 49.7506
  },
  {
    "departement": 2,
    "ville": "ROYAUCOURT-ET-CHAILVET",
    "longitude": 3.53333,
    "latitude": 49.5167
  },
  {
    "departement": 2,
    "ville": "LANDRICOURT",
    "longitude": 3.36667,
    "latitude": 49.5
  },
  {
    "departement": 2,
    "ville": "SISSONNE",
    "longitude": 3.9,
    "latitude": 49.5667
  },
  {
    "departement": 2,
    "ville": "BERLISE",
    "longitude": 4.11667,
    "latitude": 49.6667
  },
  {
    "departement": 2,
    "ville": "RIBEMONT",
    "longitude": 3.46667,
    "latitude": 49.8
  },
  {
    "departement": 2,
    "ville": "SAINS-RICHAUMONT",
    "longitude": 3.7,
    "latitude": 49.8167
  },
  {
    "departement": 2,
    "ville": "FILAIN",
    "longitude": 3.55,
    "latitude": 49.4667
  },
  {
    "departement": 2,
    "ville": "CHEVREGNY",
    "longitude": 3.58333,
    "latitude": 49.4667
  },
  {
    "departement": 2,
    "ville": "MONTCHALONS",
    "longitude": 3.73333,
    "latitude": 49.5167
  },
  {
    "departement": 2,
    "ville": "BRUMETZ",
    "longitude": 3.15,
    "latitude": 49.1
  },
  {
    "departement": 2,
    "ville": "TAILLEFONTAINE",
    "longitude": 3.03333,
    "latitude": 49.3167
  },
  {
    "departement": 2,
    "ville": "GUNY",
    "longitude": 3.26667,
    "latitude": 49.5167
  },
  {
    "departement": 2,
    "ville": "FRESNOY-LE-GRAND",
    "longitude": 3.41667,
    "latitude": 49.95
  },
  {
    "departement": 2,
    "ville": "NOUVRON-VINGRE",
    "longitude": 3.2,
    "latitude": 49.4333
  },
  {
    "departement": 2,
    "ville": "MAGNY-LA-FOSSE",
    "longitude": 3.28333,
    "latitude": 49.9333
  },
  {
    "departement": 2,
    "ville": "CUISY-EN-ALMONT",
    "longitude": 3.25,
    "latitude": 49.4167
  },
  {
    "departement": 2,
    "ville": "MONTBAVIN",
    "longitude": 3.51667,
    "latitude": 49.5333
  },
  {
    "departement": 2,
    "ville": "VORGES",
    "longitude": 3.65,
    "latitude": 49.5167
  },
  {
    "departement": 2,
    "ville": "MONTESCOURT-LIZEROLLES",
    "longitude": 3.2575,
    "latitude": 49.7387
  },
  {
    "departement": 2,
    "ville": "PONT-ARCY",
    "longitude": 3.61667,
    "latitude": 49.3833
  },
  {
    "departement": 2,
    "ville": "GRUGIES",
    "longitude": 3.26667,
    "latitude": 49.8
  },
  {
    "departement": 2,
    "ville": "BIEUXY",
    "longitude": 3.26667,
    "latitude": 49.45
  },
  {
    "departement": 2,
    "ville": "MARCY",
    "longitude": 3.4,
    "latitude": 49.8333
  },
  {
    "departement": 2,
    "ville": "BRAINE",
    "longitude": 3.53333,
    "latitude": 49.3333
  },
  {
    "departement": 2,
    "ville": "ORGEVAL",
    "longitude": 3.7,
    "latitude": 49.5167
  },
  {
    "departement": 2,
    "ville": "MAREST-DAMPCOURT",
    "longitude": 3.15,
    "latitude": 49.6
  },
  {
    "departement": 2,
    "ville": "CILLY",
    "longitude": 3.83333,
    "latitude": 49.7333
  },
  {
    "departement": 2,
    "ville": "HARLY",
    "longitude": 3.31667,
    "latitude": 49.8333
  },
  {
    "departement": 2,
    "ville": "ROUVROY",
    "longitude": 3.31667,
    "latitude": 49.85
  },
  {
    "departement": 2,
    "ville": "ROMENY-SUR-MARNE",
    "longitude": 3.33333,
    "latitude": 48.9833
  },
  {
    "departement": 2,
    "ville": "DOUCHY",
    "longitude": 3.11667,
    "latitude": 49.7667
  },
  {
    "departement": 2,
    "ville": "VAUXTIN",
    "longitude": 3.6,
    "latitude": 49.35
  },
  {
    "departement": 2,
    "ville": "ROGECOURT",
    "longitude": 3.41667,
    "latitude": 49.6333
  },
  {
    "departement": 2,
    "ville": "MONTIGNY-LENGRAIN",
    "longitude": 3.1,
    "latitude": 49.3667
  },
  {
    "departement": 2,
    "ville": "HOURY",
    "longitude": 3.85,
    "latitude": 49.7833
  },
  {
    "departement": 2,
    "ville": "PIERREPONT",
    "longitude": 3.78333,
    "latitude": 49.65
  },
  {
    "departement": 2,
    "ville": "DOHIS",
    "longitude": 4.13333,
    "latitude": 49.75
  },
  {
    "departement": 2,
    "ville": "BRASLES",
    "longitude": 3.43333,
    "latitude": 49.05
  },
  {
    "departement": 2,
    "ville": "AUBIGNY-EN-LAONNOIS",
    "longitude": 3.8,
    "latitude": 49.5
  },
  {
    "departement": 2,
    "ville": "PAISSY",
    "longitude": 3.7,
    "latitude": 49.4167
  },
  {
    "departement": 2,
    "ville": "NOUVION-LE-COMTE",
    "longitude": 3.46667,
    "latitude": 49.6833
  },
  {
    "departement": 2,
    "ville": "MONCEAU-LE-NEUF-ET-FAUCOUZY",
    "longitude": 3.61584,
    "latitude": 49.7698
  },
  {
    "departement": 2,
    "ville": "RAILLIMONT",
    "longitude": 4.15,
    "latitude": 49.7083
  },
  {
    "departement": 2,
    "ville": "DAMMARD",
    "longitude": 3.2,
    "latitude": 49.15
  },
  {
    "departement": 2,
    "ville": "PASSY-SUR-MARNE",
    "longitude": 3.56667,
    "latitude": 49.0667
  },
  {
    "departement": 2,
    "ville": "LEMPIRE",
    "longitude": 3.16667,
    "latitude": 49.9833
  },
  {
    "departement": 2,
    "ville": "CUIRY-LES-CHAUDARDES",
    "longitude": 3.76667,
    "latitude": 49.3833
  },
  {
    "departement": 2,
    "ville": "HOUSSET",
    "longitude": 3.7,
    "latitude": 49.7833
  },
  {
    "departement": 2,
    "ville": "BILLY-SUR-AISNE",
    "longitude": 3.38333,
    "latitude": 49.3667
  },
  {
    "departement": 2,
    "ville": "BELLEU",
    "longitude": 3.33333,
    "latitude": 49.3667
  },
  {
    "departement": 2,
    "ville": "PONTAVERT",
    "longitude": 3.81667,
    "latitude": 49.4167
  },
  {
    "departement": 2,
    "ville": "DIZY-LE-GROS",
    "longitude": 4.01667,
    "latitude": 49.6333
  },
  {
    "departement": 2,
    "ville": "CROUTTES-SUR-MARNE",
    "longitude": 3.24,
    "latitude": 48.98
  },
  {
    "departement": 2,
    "ville": "COURMELLES",
    "longitude": 3.31667,
    "latitude": 49.35
  },
  {
    "departement": 2,
    "ville": "BICHANCOURT",
    "longitude": 3.21667,
    "latitude": 49.5833
  },
  {
    "departement": 2,
    "ville": "BEAUVOIS-EN-VERMANDOIS",
    "longitude": 3.1,
    "latitude": 49.8167
  },
  {
    "departement": 2,
    "ville": "PRIEZ",
    "longitude": 3.26667,
    "latitude": 49.1333
  },
  {
    "departement": 2,
    "ville": "CHASSEMY",
    "longitude": 3.5,
    "latitude": 49.3833
  },
  {
    "departement": 2,
    "ville": "ETREPILLY",
    "longitude": 3.33333,
    "latitude": 49.0833
  },
  {
    "departement": 2,
    "ville": "ARTEMPS",
    "longitude": 3.18333,
    "latitude": 49.7667
  },
  {
    "departement": 2,
    "ville": "FRIERES-FAILLOUEL",
    "longitude": 3.25,
    "latitude": 49.6667
  },
  {
    "departement": 2,
    "ville": "WIEGE-FATY",
    "longitude": 3.73333,
    "latitude": 49.8833
  },
  {
    "departement": 2,
    "ville": "SAINT-NICOLAS-AUX-BOIS",
    "longitude": 3.41667,
    "latitude": 49.6
  },
  {
    "departement": 2,
    "ville": "GRICOURT",
    "longitude": 3.25,
    "latitude": 49.8833
  },
  {
    "departement": 2,
    "ville": "BLESMES",
    "longitude": 3.45,
    "latitude": 49.0333
  },
  {
    "departement": 2,
    "ville": "ville-SAVOYE",
    "longitude": 3.63333,
    "latitude": 49.3
  },
  {
    "departement": 2,
    "ville": "MERCIN-ET-VAUX",
    "longitude": 3.28333,
    "latitude": 49.3833
  },
  {
    "departement": 2,
    "ville": "CHEVRESIS-MONCEAU",
    "longitude": 3.56667,
    "latitude": 49.75
  },
  {
    "departement": 2,
    "ville": "BEAUREVOIR",
    "longitude": 3.3,
    "latitude": 50
  },
  {
    "departement": 2,
    "ville": "SAINT-BANDRY",
    "longitude": 3.16667,
    "latitude": 49.3667
  },
  {
    "departement": 2,
    "ville": "VREGNY",
    "longitude": 3.41667,
    "latitude": 49.4167
  },
  {
    "departement": 2,
    "ville": "VADENCOURT",
    "longitude": 3.58333,
    "latitude": 49.9333
  },
  {
    "departement": 2,
    "ville": "VIERZY",
    "longitude": 3.28333,
    "latitude": 49.2833
  },
  {
    "departement": 2,
    "ville": "CAILLOUEL-CREPIGNY",
    "longitude": 3.15,
    "latitude": 49.6167
  },
  {
    "departement": 2,
    "ville": "NIZY-LE-COMTE",
    "longitude": 4.05,
    "latitude": 49.5667
  },
  {
    "departement": 2,
    "ville": "VENDIERES",
    "longitude": 3.45,
    "latitude": 48.8667
  },